매장,매장명,지역,형태,폐점여부,오픈일,평수,실평수,창고,계약면적(㎡),진열평수,신주소,위도,경도,매장인원,입고도우미PO,일평균매출,일평균물동량
70920,(행)세이브존대전점,대전팀,유통행사,영업,2013-06-13,33.0,31.0,2.0,0.0,27.0,대전광역시 서구 둔산로 201 ,36.3551,127.3981,1.0,0.0,,
71667,롯데슈퍼부산용호점,서부산팀,유통점,영업,2019-08-23,280.0,260.0,20.0,924.0,254.0,"부산광역시 남구 분포로 145 (용호동, 더블유) ",35.1342,129.1112,8.2,0.8,,
71615,롯데슈퍼풍암점,전남팀,유통점,영업,2018-07-20,358.0,319.0,39.0,1182.06,311.0,광주광역시 서구 풍암2로 2 (풍암동) ,35.1272,126.8791,10.0,0.5,,
71625,AK몰기흥점,용인팀,유통점,영업,2018-12-14,213.0,200.0,13.0,703.68,194.0,"경기도 용인시 기흥구 기흥역로 63 (구갈동, 힐스테이트 기흥) ",37.2748,127.1188,10.9,0.8,,
71777,AK플라자광명점,안산팀,유통점,영업,2024-04-11,490.0,450.0,40.0,1602.0,442.0,경기도 광명시 양지로 17 (일직동) ,37.4187,126.8829,10.8,1.1,,
71811,AK플라자수원점,수원팀,유통점,영업,2025-02-12,318.0,287.0,31.0,2102.42,279.0,경기도 수원시 팔달구 덕영대로 924 (매산로1가) ,37.2656,127.0002,13.1,0.6,,
71800,GS슈퍼고양벽제점,일산팀,유통점,영업,2024-11-07,106.0,106.0,0.0,349.8,102.0,경기도 고양시 덕양구 푸른마을로 6 (고양동) ,37.7089,126.9028,1.0,0.0,,
70124,GS슈퍼공주점,대전팀,유통점,영업,2023-11-16,35.0,33.0,2.0,0.0,29.0,충청남도 공주시 무령로 310 (옥룡동) ,36.4555,127.1342,0.0,0.0,,
70129,GS슈퍼관악점,관악팀,유통점,영업,2002-08-15,12.0,12.0,0.0,0.0,0.0,서울특별시 관악구 쑥고개로 111 (봉천동) ,37.4793,126.949,1.0,0.0,,
71069,GS슈퍼광진화양점,구리팀,유통행사,영업,2010-04-23,19.0,19.0,0.0,0.0,15.0,서울특별시 광진구 능동로13길 39 한아름건물 ,37.544,127.0698,1.7,0.0,,
70336,GS슈퍼능곡점,일산팀,유통점,영업,2004-03-05,76.3,68.5,7.8,0.0,64.5,경기도 고양시 덕양구 토당로 110 (토당동) ,37.6247,126.818,0.7,0.0,,
71077,GS슈퍼당진송악점,충남팀,유통행사,영업,2010-05-17,46.0,42.0,4.0,0.0,38.0,충청남도 당진시 송악읍 신복운로5길 7 송악e마트 ,36.9422,126.7806,1.7,0.0,,
70531,GS슈퍼당진점,충남팀,유통점,영업,2005-05-21,16.0,16.0,0.0,0.0,12.0,충청남도 당진시 당진중앙2로 185-50 (읍내동) ,36.8967,126.6339,0.0,0.0,,
70100,GS슈퍼대방점,창원팀,유통점,영업,2002-05-03,8.1,8.1,0.0,0.0,4.1,경상남도 창원시 성산구 가양로124번길 5-12 (대방동) ,35.2087,128.7079,0.0,0.0,,
71148,GS슈퍼대전도마점,대전팀,유통행사,영업,2024-06-05,52.0,50.0,2.0,0.0,46.0,대전광역시 서구 배재로 206 (도마동) 14-4,36.327,127.3709,0.3,0.0,,
70110,GS슈퍼동소문점,종로팀,유통행사,영업,2023-12-12,29.0,29.0,0.0,0.0,25.0,"서울특별시 성북구 성북로4길 52 (돈암동, 한신한진아파트) 4층",37.5945,127.0127,0.0,0.0,,
71650,GS슈퍼동탄아이비파크점,수원팀,유통행사,영업,2019-06-07,30.0,30.0,0.0,0.0,26.0,"경기도 화성시 동탄광역환승로 73 (오산동, 동탄역 반도유보라 아이비파크  ",37.2029,127.09,0.7,0.0,,
71814,GS슈퍼둔촌점,강동팀,유통행사,영업,2025-03-27,50.0,50.0,0.0,0.0,46.0,서울특별시 강동구 양재대로 1360 (둔촌동) ,37.5275,127.137,0.0,0.0,,
71805,GS슈퍼만덕점,동부산팀,유통점,영업,2024-12-17,82.0,82.0,0.0,0.0,78.0,부산광역시 북구 덕천로 188 (만덕동) ,35.2109,129.0248,0.0,0.0,,
70226,GS슈퍼명일점,강동팀,유통점,영업,2003-05-14,45.0,42.0,3.0,0.0,38.0,서울특별시 강동구 양재대로 1630 (명일동) ,37.5511,127.1448,1.4,0.0,,
70037,GS슈퍼명장점,동부산팀,유통점,영업,2000-07-20,12.0,12.0,0.0,0.0,8.0,부산광역시 동래구 반송로 291 (명장동) ,35.2064,129.1018,0.0,0.0,,
70889,GS슈퍼문경점,경북팀,유통행사,영업,2008-11-28,84.4,84.4,0.0,0.0,80.4,경상북도 문경시 영신로 12 GS문경점 ,36.5939,128.2,1.3,0.0,,
70156,GS슈퍼봉명점,충북팀,유통점,영업,2002-10-19,9.0,6.0,3.0,0.0,2.0,충청북도 청주시 흥덕구 1순환로 576 (봉명동) ,36.6418,127.4611,0.0,0.0,,
71774,GS슈퍼부평산곡점,남인천팀,유통점,영업,2024-01-27,40.0,40.0,0.0,0.0,36.0,인천광역시 부평구 원적로432번길 10 (산곡동) ,37.5031,126.7139,0.7,0.0,,
70162,GS슈퍼북가좌점,신촌팀,유통점,영업,2002-10-29,64.0,56.0,8.0,0.0,52.0,서울특별시 서대문구 응암로 54 (북가좌동) 서부코아 지층,37.5779,126.9102,1.1,0.1,,
71259,GS슈퍼사우점,일산팀,유통행사,영업,2011-10-15,35.0,35.0,0.0,0.0,31.0,경기도 김포시 돌문로 43 ,37.6189,126.7178,0.7,0.0,,
71817,GS슈퍼서인천점,북인천팀,유통행사,영업,2025-04-24,63.0,62.0,1.0,0.0,58.0,인천광역시 서구 탁옥로34번길 1 (심곡동) ,37.5437,126.6738,1.0,0.0,,
70648,GS슈퍼송파점,강남팀,유통행사,영업,2025-01-23,69.0,60.0,9.0,0.0,56.0,서울특별시 송파구 동남로 189 (가락동) 140 쌍용아파트 상가(T02-3401-6251),37.4947,127.1299,0.3,0.0,,
71150,GS슈퍼수원매탄점,수원팀,유통행사,영업,2024-03-20,36.0,36.0,0.0,0.0,32.0,"경기도 수원시 영통구 효원로 363 (매탄동, 매탄 위브 하늘채) 1352",37.2615,127.0395,0.0,0.0,,
71818,GS슈퍼수원아트리움점,수원팀,유통행사,영업,2025-04-25,65.0,65.0,0.0,0.0,61.0,경기도 수원시 장안구 이목로 24-3 (정자동) ,37.3096,126.9846,0.0,0.0,,
71804,GS슈퍼안성점,평택팀,유통행사,영업,2024-12-12,50.0,50.0,0.0,0.0,46.0,경기도 안성시 중앙로 430 (영동) ,37.0061,127.2742,0.7,0.0,,
71490,GS슈퍼여의도점,신촌팀,유통행사,영업,2023-10-26,32.8,32.8,0.0,0.0,28.8,서울특별시 영등포구 국제금융로7길 15 (여의도동) ,37.5232,126.932,1.0,0.0,,
70166,GS슈퍼연수점,남인천팀,유통점,영업,2024-12-07,90.0,90.0,0.0,297.0,86.0,"인천광역시 연수구 원인재로 88 (동춘동, 대우삼환아파트) ",37.4065,126.6783,0.0,0.0,,
71755,GS슈퍼위례중앙점,강동팀,유통행사,영업,2023-07-01,25.0,25.0,0.0,0.0,21.0,경기도 성남시 수정구 위례광장로 300 (창곡동) ,37.4735,127.1427,1.0,0.0,,
71822,GS슈퍼의정부민락점,강북팀,유통행사,영업,2025-06-06,55.0,53.0,2.0,0.0,49.0,경기도 의정부시 용현로 155 (민락동) ,37.7409,127.0933,0.3,0.0,,
71475,GS슈퍼인천삼산점,남인천팀,유통행사,영업,2015-01-30,41.0,41.0,0.0,0.0,37.0,인천광역시 부평구 영성중로15번길 12 ,37.5184,126.7436,0.7,0.0,,
71786,GS슈퍼정관신도시점,동부산팀,유통점,영업,2024-07-30,104.0,97.0,7.0,343.0,93.0,부산광역시 기장군 정관읍 모전1길 14 ,35.3354,129.1665,0.7,0.0,,
71403,GS슈퍼종로평창점,종로팀,유통행사,영업,2024-06-29,57.0,55.0,2.0,0.0,51.0,"서울특별시 종로구 평창문화로 75 (평창동) 158-1,지하1층",37.6069,126.969,0.1,0.1,,
70105,GS슈퍼증평점,충북팀,유통점,영업,2002-06-08,22.0,20.0,2.0,0.0,16.0,충청북도 증평군 증평읍 창신로 54 ,36.7807,127.5789,0.0,0.0,,
71706,GS슈퍼진주센트럴점,창원팀,유통점,영업,2021-04-01,77.0,77.0,0.0,0.0,73.0,"경상남도 진주시 에나로175번길 12 (충무공동, 혁신도시중흥에스-클래스센트럴시티3단지) ",35.1738,128.1449,0.0,0.0,,
70247,GS슈퍼진천점,충북팀,유통점,영업,2003-07-22,9.0,8.0,1.0,0.0,4.0,충청북도 진천군 진천읍 남산길 78 ,36.8537,127.4436,0.3,0.0,,
70319,GS슈퍼천안두정점,충남팀,유통점,영업,2003-12-29,18.5,18.0,0.5,0.0,14.0,충청남도 천안시 서북구 두정로 203 (두정동) ,36.834,127.1396,0.0,0.0,,
71769,GS슈퍼천안점,충남팀,유통행사,영업,2023-10-28,32.0,30.0,2.0,0.0,26.0,충청남도 천안시 동남구 충절로 148 (원성동) ,36.8055,127.1584,0.0,0.0,,
70713,GS슈퍼충주연수점,충북팀,유통행사,영업,2007-07-25,93.0,89.0,4.0,307.0,85.0,충청북도 충주시 금곡로 55 ,36.9905,127.9375,1.0,0.0,,
70714,GS슈퍼충주용산점,충북팀,유통행사,영업,2007-08-03,12.0,11.0,1.0,0.0,7.0,충청북도 충주시 남산로 72 ,36.9612,127.9401,0.0,0.0,,
70099,GS슈퍼토월점,창원팀,유통점,영업,2002-04-26,10.5,10.5,0.0,0.0,6.5,경상남도 창원시 성산구 동산로 108 (상남동) ,35.2182,128.69,0.0,0.0,,
70653,GS슈퍼평택이충점,평택팀,유통행사,영업,2006-12-08,41.0,41.0,0.0,0.0,37.0,경기도 평택시 이충로35번길 28-22 리치플러스 ,37.0592,127.066,0.7,0.0,,
70783,GS슈퍼포곡점,용인팀,유통행사,영업,2008-01-22,32.0,32.0,0.0,0.0,28.0,"경기 용인시 처인구 포곡읍 둔전로47번길 21 (둔전리, 라데팡스) ",37.2683,127.2191,0.0,0.0,,
71803,GS슈퍼포천점,강북팀,유통행사,영업,2024-11-29,65.0,65.0,0.0,0.0,61.0,경기 포천시 중앙로 165 ,37.9006,127.2058,0.7,0.0,,
70203,GS슈퍼포항두호점,울산팀,유통점,영업,2024-07-18,76.5,76.5,0.0,0.0,72.5,경상북도 포항시 북구 용두산길 3 (두호동) ,36.0641,129.3826,1.0,0.0,,
70089,GS슈퍼포항점,울산팀,유통점,영업,2004-06-02,102.2,102.2,0.0,337.26,98.2,경상북도 포항시 북구 중흥로 244 (죽도동) ,36.0243,129.3605,1.4,0.0,,
71835,GS슈퍼포항창포점,울산팀,유통행사,영업,2025-12-03,53.0,53.0,0.0,0.0,49.0,경상북도 포항시 북구 새천년대로1076번길 4 (두호동) ,36.0637,129.3719,1.0,0.0,,
71785,GS슈퍼하남점,강동팀,유통행사,영업,2024-07-19,51.0,51.0,0.0,0.0,47.0,경기도 하남시 신장1로9번길 74 (신장동) ,37.5391,127.2061,0.7,0.0,,
70108,GS슈퍼학익점,남인천팀,유통점,영업,2002-06-26,19.0,19.0,0.0,0.0,15.0,인천광역시 미추홀구 소성로 146 (학익동) ,37.4422,126.6642,0.3,0.0,,
71796,NC대전유성점,대전팀,유통점,영업,2024-10-31,404.0,377.0,27.0,2671.8,369.0,대전광역시 유성구 계룡로 119 (봉명동) ,36.3537,127.344,10.2,0.8,,
71757,NC신구로점,관악팀,유통점,영업,2023-07-15,129.0,123.0,6.0,1108.2,119.0,서울특별시 구로구 구로중앙로 152 (구로동) 지상2층,37.5012,126.8828,8.0,0.3,,
71838,NC청주점,충북팀,유통점,영업,2026-04-10,571.0,518.0,53.0,0.0,510.0,충청북도 청주시 흥덕구 2순환로 1233 (가경동) ,36.6262,127.4311,9.6,0.8,,
71635,e에브리데이개봉동점,관악팀,유통행사,영업,2019-03-05,30.0,30.0,0.0,0.0,26.0,서울특별시 구로구 개봉로17길 34 (개봉동) ,37.4918,126.8541,1.0,0.0,,
71733,e에브리데이고양덕이점,일산팀,유통점,영업,2022-08-11,100.0,95.0,5.0,330.0,91.0,경기도 고양시 일산서구 하이파크2로 65(덕이동) ,37.6998,126.7563,1.0,0.0,,
71292,e에브리데이공릉동점,강북팀,유통행사,영업,2018-06-25,30.0,30.0,0.0,0.0,26.0,서울특별시 노원구 노원로1길 67 (공릉동) ,37.6208,127.0836,1.0,0.0,,
71308,e에브리데이김해점,서부산팀,유통행사,영업,2020-05-26,20.0,20.0,0.0,0.0,16.0,경남 김해시 가야로38번길 10 (삼계동) ,35.269,128.8643,0.0,0.0,,
71779,e에브리데이남가좌점,신촌팀,유통점,영업,2024-04-06,71.0,71.0,0.0,0.0,67.0,"서울특별시 서대문구 수색로2길 39 (남가좌동, DMC금호리첸시아) ",37.5713,126.9159,0.7,0.0,,
71730,e에브리데이내곡점,강남팀,유통점,영업,2022-06-23,100.0,90.0,10.0,330.0,86.0,서울특별시 서초구 청계산로9길 70(내곡동) ,37.4535,127.0598,1.3,0.3,,
71591,e에브리데이녹양동점,강북팀,유통행사,영업,2018-03-12,31.0,31.0,0.0,0.0,27.0,경기도 의정부시 비우로 57 (녹양동) ,37.7583,127.0335,0.0,0.0,,
71288,e에브리데이답십리점,종로팀,유통행사,영업,2018-08-27,31.0,30.0,1.0,0.0,26.0,서울특별시 동대문구 고미술로 49 (답십리동) ,37.5675,127.0535,0.0,0.0,,
71765,e에브리데이대구도남점,경북팀,유통점,영업,2023-09-14,60.0,55.49,4.51,0.0,51.49,대구광역시 북구 도남중앙로7길 20-55 (국우동) ,35.9524,128.5827,1.0,0.0,,
71599,e에브리데이덕정점,강북팀,유통행사,영업,2018-04-25,34.0,34.0,0.0,0.0,30.0,경기도 양주시 회정로 126 (덕정동) ,37.8372,127.0672,1.0,0.0,,
71606,e에브리데이동양점,북인천팀,유통행사,영업,2018-06-12,32.5,32.5,0.0,0.0,28.5,인천광역시 계양구 당미길 23 (동양동) ,37.5613,126.758,1.0,0.0,,
71749,e에브리데이동탄목동점,수원팀,유통점,영업,2023-04-27,100.0,95.0,5.0,330.0,91.0,경기도 화성시 동탄신리천로1길 4 (목동) ,37.182,127.1245,1.7,0.0,,
71605,e에브리데이동탄카림점,수원팀,유통점,영업,2018-06-11,138.7,130.0,8.7,458.0,126.0,"경기도 화성시 동탄구 동탄대로시범길 134 (청계동, 동탄역시범반도유보라아이비파크4.0) ",37.199,127.1131,4.1,0.0,,
71688,e에브리데이동탄호수점,수원팀,유통점,영업,2020-05-21,72.0,67.0,5.0,0.0,63.0,"경기도 화성시 동탄대로 181 (송동, 동탄린스트라우스더레이크) ",37.1721,127.1041,1.4,0.0,,
71820,e에브리데이둔촌포레온점,강동팀,유통점,영업,2025-05-30,120.0,108.0,12.0,396.0,104.0,"서울특별시 강동구 양재대로 1300 (둔촌동, 올림픽파크포레온) ",37.525,127.1403,1.3,0.3,,
71595,e에브리데이마북점,용인팀,유통행사,영업,2018-04-09,50.8,50.8,0.0,0.0,46.8,경기 용인시 기흥구 구교동로 172 (마북동) ,37.3038,127.1226,1.0,0.0,,
71289,e에브리데이면목동점,구리팀,유통행사,영업,2018-05-14,30.0,30.0,0.0,0.0,26.0,"서울 중랑구 면목로39길 11 (면목동, 카멜리아쇼핑센타) ",37.5796,127.0863,0.7,0.0,,
71726,e에브리데이명지대점,신촌팀,유통점,영업,2022-04-14,70.0,65.0,5.0,0.0,61.0,서울특별시 서대문구 거북골로 34(남가좌동) ,37.5804,126.9213,4.2,0.5,,
71296,e에브리데이모충동점,충북팀,유통행사,영업,2024-05-11,54.0,49.0,5.0,0.0,45.0,충청북도 청주시 서원구 남들로 44 (모충동) 128-1,36.6218,127.4852,0.7,0.0,,
71693,e에브리데이백석점,강북팀,유통행사,영업,2020-08-10,41.0,40.0,1.0,0.0,36.0,경기도 양주시 백석읍 양주산성로 567 ,37.7867,126.9906,1.0,0.0,,
71747,e에브리데이법동점,대전팀,유통점,영업,2023-03-10,60.0,55.0,5.0,0.0,51.0,"대전광역시 대덕구 동춘당로 178(법동, 보람아파트) ",36.369,127.4302,1.0,0.0,,
71665,e에브리데이법원점,일산팀,유통점,영업,2019-08-15,64.5,53.0,11.5,0.0,49.0,경기도 파주시 법원읍 술이홀로 899 ,37.8514,126.8744,1.0,0.0,,
71775,e에브리데이부산반여점,동부산팀,유통점,영업,2024-02-21,80.0,80.0,0.0,0.0,76.0,부산광역시 해운대구 선수촌로 65-7 (반여동) ,35.1996,129.1182,1.7,0.0,,
71793,e에브리데이분당구미점,강동팀,유통행사,영업,2024-09-28,51.0,47.0,4.0,0.0,43.0,경기도 성남시 분당구 미금로 48 (구미동) ,37.3378,127.1165,0.0,0.0,,
71279,e에브리데이상현동점,용인팀,유통행사,영업,2018-10-29,46.0,46.0,0.0,0.0,42.0,"경기 용인시 수지구 만현로 100 (상현동, 거묵푸라자) ",37.3078,127.0845,1.0,0.0,,
71371,e에브리데이서창동점,남인천팀,유통행사,영업,2018-11-26,69.0,64.0,5.0,0.0,60.0,인천 남동구 독곡로 51 563-1,37.4345,126.7496,0.0,0.0,,
71584,e에브리데이신곡풍림점,강북팀,유통점,영업,2018-01-23,82.0,70.0,12.0,0.0,66.0,경기도 의정부시 동일로454번길 40 (신곡동) ,37.7284,127.0618,1.0,0.0,,
71633,e에브리데이신탄진점,대전팀,유통행사,영업,2019-02-13,34.0,30.0,4.0,0.0,26.0,대전 대덕구 대청로 62 ,36.4527,127.4352,0.0,0.0,,
71802,e에브리데이신풍역점,신촌팀,유통점,영업,2024-11-20,54.0,54.0,0.0,0.0,50.0,"서울특별시 영등포구 신풍로 28 (신길동, 비스타동원) ",37.4998,126.9096,2.0,0.0,,
71646,e에브리데이양재점,강남팀,유통행사,영업,2019-05-13,30.0,30.0,0.0,0.0,26.0,서울특별시 서초구 동산로2길 16 (양재동) ,37.4691,127.0416,1.0,0.0,,
71740,e에브리데이오창산단점,충북팀,유통점,영업,2022-11-10,210.0,200.0,10.0,693.0,194.0,충북 청주시 청원구 오창읍 주성1길 18-6 (주성리) ,36.7337,127.4519,5.0,0.6,,
71628,e에브리데이용방점,대전팀,유통점,영업,2019-01-23,50.0,43.0,7.0,0.0,39.0,"대전 동구 계족로140번길 183 (용운동, 덕림코아빌딩) ",36.3284,127.4545,1.0,0.0,,
71349,e에브리데이용현동점,강북팀,유통행사,영업,2018-11-12,44.0,44.0,0.0,0.0,40.0,경기 의정부시 오목로35번길 20 29-23,37.7343,127.0864,0.7,0.0,,
71286,e에브리데이월피점,안산팀,유통행사,영업,2018-10-11,28.0,28.0,0.0,0.0,24.0,경기도 안산시 상록구 광덕산2로 28 (월피동) ,37.3351,126.8457,1.0,0.0,,
71813,e에브리데이이문점,종로팀,유통점,영업,2025-02-27,102.0,91.0,11.0,337.0,87.0,서울특별시 동대문구 이문로 136 (이문동) ,37.5985,127.0619,3.0,0.0,,
71737,e에브리데이인천영종점,남인천팀,유통점,영업,2022-09-06,200.0,189.0,11.0,660.0,183.0,인천광역시 중구 흰바위로 284(운남동) ,37.4772,126.5065,2.0,0.0,,
71687,e에브리데이작전점,북인천팀,유통행사,영업,2020-04-13,33.0,33.0,0.0,0.0,29.0,인천 계양구 효서로 348-1 (작전동) ,37.5276,126.735,0.0,0.0,,
71592,e에브리데이중계동점,강북팀,유통행사,영업,2018-03-26,34.0,34.0,0.0,0.0,30.0,"서울 노원구 중계로12길 39 (중계동, 이연아마빌레) ",37.6467,127.0826,0.0,0.0,,
71750,e에브리데이춘천우두점,춘천원주팀,유통점,영업,2023-05-05,73.0,70.0,3.0,0.0,66.0,강원도 춘천시 우두1길 93 (우두동) ,37.9082,127.7336,1.0,0.0,,
71834,e에브리데이충주호암점,충북팀,유통점,영업,2025-11-07,102.0,90.0,12.0,0.0,86.0,충북 충주시 호암수청4길 5 ,36.9568,127.9235,0.7,0.0,,
71583,e에브리데이통일동산점,일산팀,유통행사,영업,2017-12-28,46.0,46.0,0.0,0.0,42.0,경기도 파주시 탄현면 사슴벌레로73번길 51 ,37.7805,126.6981,2.8,0.1,,
71620,e에브리데이평내점,구리팀,유통행사,영업,2018-10-11,47.0,46.0,1.0,0.0,42.0,경기도 남양주시 경춘로1256번길 34 (평내동) ,37.6446,127.2368,1.0,0.0,,
71746,e에브리데이평택동삭점,평택팀,유통점,영업,2023-02-16,75.0,71.0,4.0,0.0,67.0,경기도 평택시 상서재로2길 56-17(동삭동) ,37.0161,127.1035,0.0,0.0,,
71636,e에브리데이평택비전점,평택팀,유통행사,영업,2019-03-26,30.0,27.0,3.0,0.0,23.0,경기도 평택시 비전2로 73 (비전동) ,37.0047,127.1003,0.0,0.0,,
71301,e에브리데이평화동점,전북팀,유통행사,영업,2023-06-23,50.0,38.0,12.0,0.0,34.0,전라북도 전주시 완산구 평화로 131 (평화동2가) 193,35.7886,127.1347,0.0,0.0,,
71732,e에브리데이포항양덕점,울산팀,유통점,영업,2022-07-29,100.0,94.5,5.5,330.0,90.5,경상북도 포항시 북구 장량중앙로 49(양덕동) ,36.0905,129.3872,1.0,0.0,,
71608,e에브리데이하안동점,안산팀,유통행사,영업,2018-07-10,28.0,28.0,0.0,0.0,24.0,경기도 광명시 하안로288번길 15 (하안동) ,37.4622,126.8813,0.7,0.0,,
71306,e에브리데이형곡동점,경북팀,유통행사,영업,2018-03-06,57.0,52.0,5.0,0.0,48.0,경상북도 구미시 경은로 88 (형곡동) ,36.114,128.3371,0.7,0.0,,
10523,가능역점,강북팀,직영점,영업,2013-09-27,65.0,60.0,5.0,603.0,56.0,경기도 의정부시 신촌로 79 (가능동) ,37.7503,127.0395,5.7,0.3,6372500.0,127.0
10575,가락시장역점,강남팀,직영점,영업,2015-07-03,170.0,160.0,10.0,1022.0,149.0,서울특별시 송파구 중대로 109 (가락동) ,37.4938,127.1205,8.8,0.8,9669250.0,193.0
10294,가양역2호점,일산팀,직영점,영업,2011-02-28,235.0,202.0,33.0,753.0,168.0,서울특별시 강서구 화곡로 418 (등촌동) ,37.5604,126.8552,10.2,0.8,14737464.285714284,295.0
10641,가좌역점,신촌팀,직영점,영업,2016-12-10,270.0,255.0,15.0,859.0,235.0,서울특별시 서대문구 수색로 26 (남가좌동) ,37.5692,126.9157,12.3,0.9,15008250.0,300.0
11029,간석역북부점,남인천팀,직영점,영업,2022-11-05,415.0,371.0,44.0,1402.15,349.0,인천광역시 남동구 석정로 524(간석동) ,37.4654,126.694,11.7,0.6,13950571.42857143,279.0
10130,간석점,남인천팀,직영점,영업,2008-08-08,188.0,182.0,6.0,753.0,176.0,"인천광역시 남동구 남동대로 860 (간석동, 간석래미안자이아파트) ",37.4601,126.709,9.2,0.8,10497892.857142856,210.0
11206,강남고속버스터미널2호점,강남팀,직영점,영업,2025-09-26,85.24,85.24,0.0,0.0,81.24,서울특별시 서초구 신반포로 194 (반포동) 1층,37.5064,127.0068,5.7,0.7,7300839.285714285,146.0
10640,강남고속버스터미널점,강남팀,직영점,영업,2016-12-09,650.0,610.0,40.0,2711.0,650.0,서울특별시 서초구 신반포로 194 (반포동) 지하1층,37.5064,127.0068,28.1,2.7,32386535.714285713,648.0
10600,강남구청역점,강남팀,직영점,영업,2016-04-23,130.0,120.0,10.0,472.0,116.0,서울특별시 강남구 학동로 지하 346 (삼성동) ,37.5172,127.0413,10.4,2.1,14200875.0,284.0
10224,강남역2호점,강남팀,직영점,영업,2010-02-28,185.0,178.0,7.0,760.0,172.0,서울특별시 강남구 테헤란로 109 (역삼동) ,37.4988,127.029,12.4,1.7,16355267.857142856,327.0
11199,강남역점,강남팀,직영점,영업,2025-09-30,507.23,428.0,79.23,0.0,406.0,서울특별시 강남구 강남대로 422 (역삼동) ,37.5004,127.027,22.1,2.7,38633196.428571425,773.0
10306,강릉교동점,강릉속초팀,직영점,영업,2011-03-31,160.0,145.0,15.0,620.0,125.0,강원도 강릉시 솔올로5번길 18-2 (교동) ,37.763,128.8758,6.5,0.5,7065178.571428572,141.0
11126,강릉율곡점,강릉속초팀,직영점,영업,2024-07-12,315.0,273.0,42.0,1011.09,244.0,강원특별자치도 강릉시 율곡로 3080 (교동) ,37.7767,128.8872,13.9,0.5,15898071.42857143,318.0
10784,강릉입암점,강릉속초팀,직영점,영업,2018-04-26,444.0,414.0,30.0,1739.0,399.0,강원도 강릉시 용지로 23 (입암동) ,37.7537,128.9115,15.6,0.5,13892517.857142856,278.0
10570,강릉중앙점,강릉속초팀,직영점,영업,2015-05-20,292.1,249.8,42.3,929.0,229.8,강원도 강릉시 금성로 34 (금학동) ,37.7535,128.897,15.5,1.1,13328160.714285716,267.0
10818,강북구청사거리점,강북팀,직영점,영업,2018-07-20,320.0,295.0,25.0,1037.0,280.0,서울특별시 강북구 한천로 1038 (수유동) ,37.6402,127.027,14.4,1.3,16399642.857142856,328.0
10781,강화본점,북인천팀,직영점,영업,2018-09-20,314.0,296.0,18.0,1031.9,274.0,인천광역시 강화군 강화읍 중앙로 6 ,37.7425,126.4918,10.7,0.6,11902857.142857144,238.0
11159,강화온수리점,북인천팀,직영점,영업,2025-02-21,170.0,161.0,9.0,754.18,148.0,인천광역시 강화군 길상면 길상로 294 ,37.6374,126.4943,4.7,0.3,5405196.428571428,108.0
10644,개봉역남부점,관악팀,직영점,영업,2016-10-26,150.0,130.0,20.0,478.0,122.0,서울특별시 구로구 남부순환로97길 3 (개봉동) 지하1층,37.494,126.8583,9.8,0.4,10170803.57142857,203.0
10278,개봉역점,관악팀,직영점,영업,2010-12-14,128.0,125.0,3.0,417.0,114.0,서울특별시 구로구 경인로40길 41 (개봉동) ,37.495,126.859,10.0,0.5,11513535.714285716,230.0
11074,개포동점,강남팀,직영점,영업,2023-10-13,215.0,193.0,22.0,774.55,187.0,서울특별시 강남구 선릉로 30 (개포동) ,37.4825,127.0612,6.0,1.3,6461142.857142857,129.0
10941,거제고현2호점,창원팀,직영점,영업,2020-07-31,214.0,190.0,24.0,945.66,177.0,경상남도 거제시 거제중앙로 1868-2 (고현동) ,34.8855,128.6248,8.9,0.8,12171642.857142856,243.0
11026,거제수월점,창원팀,직영점,영업,2022-09-23,279.0,260.0,19.0,944.79,240.0,경상남도 거제시 거제대로 4523(수월동) ,34.8945,128.6413,9.9,0.5,11533125.0,231.0
10729,거제옥포2호점,창원팀,직영점,영업,2018-06-30,422.0,382.0,40.0,1414.0,353.0,경상남도 거제시 옥포대첩로 42 (옥포동) ,34.8936,128.6922,14.9,0.8,19367839.285714287,387.0
10308,거창대동점,대구팀,직영점,영업,2011-04-11,188.0,180.0,8.0,595.0,167.0,경상남도 거창군 거창읍 거창대로 59 ,35.6868,127.9159,6.2,0.5,6511517.857142857,130.0
11083,거창송정점,대구팀,직영점,영업,2023-11-24,302.0,281.0,21.0,999.0,259.0,경상남도 거창군 거창읍 거함대로 3106 ,35.6796,127.9016,12.5,0.8,13483142.857142856,270.0
10481,건대입구점,구리팀,직영점,영업,2013-02-12,85.0,85.0,0.0,426.0,81.0,서울특별시 광진구 아차산로 225 (화양동) ,37.5409,127.0685,8.5,0.8,10112375.0,202.0
10689,경기광주본점,용인팀,직영점,영업,2017-11-12,330.0,310.0,20.0,554.0,281.0,경기도 광주시 광주대로 17 (역동) ,37.4082,127.2605,17.2,1.1,21930660.714285713,439.0
11150,경기광주양벌동점,용인팀,직영점,영업,2024-11-29,261.0,238.0,23.0,897.6,232.0,경기도 광주시 양벌로 320-4 (양벌동) ,37.3713,127.2464,9.9,0.5,9995946.42857143,200.0
11036,경기광주중대점,용인팀,직영점,영업,2022-12-23,260.0,233.0,27.0,826.16,220.0,경기도 광주시 순암로 360(중대동) ,37.405,127.2135,8.2,0.8,8301928.571428572,166.0
10947,경기광주초월점,용인팀,직영점,영업,2020-12-26,235.0,218.0,17.0,804.0,205.0,경기도 광주시 초월읍 경충대로 1004 ,37.3694,127.3046,9.2,0.8,11857357.142857144,237.0
11217,경기광주태전점,용인팀,직영점,영업,2025-12-19,259.0,233.0,26.0,0.0,220.0,경기도 광주시 태성로 98 (태전동) ,37.3813,127.2277,9.6,0.5,9905785.714285716,198.0
10596,경복궁역점,종로팀,직영점,영업,2016-01-21,120.0,110.0,10.0,443.0,94.0,서울특별시 종로구 자하문로2길 4 (적선동) ,37.5764,126.9729,10.4,1.0,12418946.42857143,248.0
10777,경북도청신도시점,경북팀,직영점,영업,2018-05-21,419.0,394.0,25.0,1386.0,372.0,경상북도 예천군 호명면 수변로 109 ,36.5748,128.4849,11.4,0.4,13822910.714285716,276.0
11190,경산남부점,대구팀,직영점,영업,2025-07-25,302.01,266.0,36.01,997.78,258.0,경상북도 경산시 경안로8길 5 (상방동) ,35.8112,128.7408,7.9,0.5,8684303.57142857,174.0
10722,경산영남대점,대구팀,직영점,영업,2017-10-21,303.0,278.0,25.0,997.0,249.0,경상북도 경산시 대학로 269 (대동) ,35.8362,128.7518,12.2,0.8,14906660.714285716,298.0
10721,경산옥산점,대구팀,직영점,영업,2017-11-29,305.0,295.0,10.0,2469.0,280.0,경상북도 경산시 경산로 207 (옥산동) ,35.8264,128.7251,11.2,0.8,10646160.714285716,213.0
11091,경산월드컵대로점,대구팀,직영점,영업,2023-12-22,298.0,247.0,51.0,965.2,234.0,경상북도 경산시 삼성현로 34-2 (옥산동) ,35.826,128.7116,9.6,0.5,9309392.857142856,186.0
10711,경산중앙점,대구팀,직영점,영업,2017-08-18,300.0,280.0,20.0,1758.0,272.0,경상북도 경산시 중앙로15길 1 (중방동) ,35.8232,128.7346,10.2,0.5,10561535.714285716,211.0
11093,경산하양본점,대구팀,직영점,영업,2024-02-08,502.0,473.0,29.0,1649.42,451.0,경상북도 경산시 하양읍 대경로 666 ,35.9077,128.814,10.9,0.8,13087750.0,262.0
10120,경산하양점,대구팀,직영점,영업,2008-04-15,458.0,410.0,48.0,1965.0,395.0,경상북도 경산시 하양읍 하양로 69 ,35.9115,128.8161,8.9,0.8,12083857.142857144,242.0
10675,경주본점,울산팀,직영점,영업,2017-05-04,574.0,539.0,35.0,2294.0,510.0,경상북도 경주시 계림로 101 (노동동) ,35.8436,129.2133,9.5,1.1,13673964.285714284,273.0
11219,경주시외버스터미널점,울산팀,직영점,영업,2025-12-30,557.0,423.0,134.0,0.0,401.0,경상북도 경주시 강변로 200 (노서동) ,35.8414,129.2019,9.6,0.5,10969178.57142857,219.0
10906,경주용황지구점,울산팀,직영점,영업,2019-07-26,363.0,303.0,60.0,994.51,274.0,경상북도 경주시 용황로 112 (용강동) ,35.8821,129.2298,9.2,0.8,10117000.0,202.0
11077,경주황성공원점,울산팀,직영점,영업,2023-12-14,296.0,249.0,47.0,979.49,243.0,경상북도 경주시 원화로 447 (황성동) 2층,35.8607,129.22,8.6,0.8,10439125.0,209.0
11020,계룡대실지구점,대전팀,직영점,영업,2022-07-14,302.0,284.0,18.0,996.92,269.0,충청남도 계룡시 두마면 대실남북1길 31 ,36.2658,127.2606,9.3,0.5,11204821.42857143,224.0
10229,계룡점,대전팀,직영점,영업,2010-03-16,87.0,82.0,5.0,300.0,78.0,충청남도 계룡시 엄사면 번영로 40 ,36.289,127.241,5.4,0.3,4877232.142857143,98.0
71654,고객사랑마트포이점,강남팀,유통행사,영업,2019-05-01,50.0,48.0,2.0,0.0,44.0,서울특별시 강남구 논현로10길 29 (개포동) ,37.4753,127.0504,1.1,0.1,,
10413,고덕점,강동팀,직영점,영업,2012-06-16,140.0,134.0,6.0,733.0,125.0,서울특별시 강동구 동남로75길 13-7 (명일동) ,37.5539,127.1555,8.5,0.8,8826125.0,177.0
11178,고양신원점,일산팀,직영점,영업,2025-05-31,524.0,404.0,120.0,1735.48,375.0,경기도 고양시 덕양구 통일로 317 (신원동) ,37.663,126.8924,11.2,0.8,10991714.285714284,220.0
10744,고양원당점,일산팀,직영점,영업,2018-02-23,300.0,270.0,30.0,1081.0,234.0,경기도 고양시 덕양구 고양대로 1351 (주교동) ,37.6553,126.8344,9.9,0.8,10895982.142857144,218.0
10919,고양중산점,일산팀,직영점,영업,2019-10-24,244.0,232.0,12.0,857.44,219.0,경기도 고양시 일산동구 소개울길 4 (중산동) ,37.6812,126.7886,11.2,0.8,12754696.42857143,255.0
10353,고양행신점,일산팀,직영점,영업,2011-09-20,155.0,144.0,11.0,1019.0,128.0,경기도 고양시 덕양구 중앙로 454 (행신동) ,37.6186,126.845,6.1,0.4,6206357.142857143,124.0
11082,고양화정2호점,일산팀,직영점,영업,2023-11-30,274.0,248.0,26.0,1641.62,242.0,경기도 고양시 덕양구 충장로 285 (화정동) ,37.6378,126.8377,9.6,0.5,9718982.142857144,194.0
10521,고양화정점,일산팀,직영점,영업,2013-09-10,197.0,171.0,26.0,740.0,158.0,경기도 고양시 덕양구 화신로260번길 31 (화정동) ,37.6321,126.8325,10.6,0.5,11278196.42857143,226.0
10656,공주신관점,대전팀,직영점,영업,2017-02-10,314.0,304.0,10.0,1035.0,289.0,충청남도 공주시 번영1로 37 (신관동) ,36.4715,127.1328,14.0,0.8,17682178.57142857,354.0
10267,공주점,대전팀,직영점,영업,2010-10-12,94.0,90.0,4.0,297.0,79.0,충청남도 공주시 웅진로 185-1 (산성동) ,36.457,127.1246,5.4,0.3,5024767.857142857,100.0
71676,과천식자재마트점,관악팀,유통행사,영업,2019-10-21,56.0,55.0,1.0,0.0,51.0,"경기도 과천시 별양로 12 (원문동, 래미안 슈르) ",37.423,126.9935,1.0,0.0,,
10548,과천점,관악팀,직영점,영업,2014-07-31,150.0,140.0,10.0,300.0,134.0,경기도 과천시 중앙로 129 (중앙동) ,37.4283,126.991,4.8,0.8,5933482.142857143,119.0
70948,관악농산물백화점,관악팀,유통점,영업,2009-05-28,30.0,30.0,0.0,0.0,26.0,서울특별시 관악구 남부순환로 1369 (신림동) ,37.4801,126.9029,1.0,0.0,,
71509,관악식자재마트점,관악팀,유통점,영업,2016-02-18,72.0,69.0,3.0,0.0,65.0,"서울특별시 관악구 청림3길 10 (봉천동, 서희스타힐스) ",37.4887,126.9595,1.7,0.0,,
10350,관양시장점,관악팀,직영점,영업,2011-08-30,95.0,90.0,5.0,348.0,88.0,경기도 안양시 동안구 관평로 317 (관양동) ,37.4048,126.9572,7.7,0.6,9338071.42857143,187.0
10918,광교상현역점,용인팀,직영점,영업,2019-09-27,202.0,193.0,9.0,762.56,180.0,경기도 용인시 수지구 광교중앙로295번길 3 (상현동) ,37.2963,127.0682,8.9,0.5,10346464.285714284,207.0
10917,광교아브뉴프랑점,수원팀,직영점,영업,2019-10-31,334.13,304.1,30.03,2453.08,296.1,"경기도 수원시 영통구 센트럴타운로 85 (이의동, Summit place 광교) ",37.2916,127.0505,12.2,0.8,16241053.57142857,325.0
10524,광명사거리점,안산팀,직영점,영업,2013-10-22,150.0,141.0,9.0,661.0,139.0,경기도 광명시 광명로 907 (광명동) ,37.4799,126.8543,14.6,0.8,16581142.857142856,332.0
10443,광명소하점,안산팀,직영점,영업,2012-09-27,347.0,294.0,53.0,1825.0,279.0,경기도 광명시 금하로 522 (소하동) ,37.4506,126.8901,9.2,0.8,11646696.42857143,233.0
10896,광명하안점,안산팀,직영점,영업,2019-07-23,380.0,360.0,20.0,1452.64,338.0,경기도 광명시 오리로 665 (하안동) ,37.4601,126.8761,15.7,1.1,18081142.85714286,362.0
11073,광양중동점,전남팀,직영점,영업,2023-09-26,282.0,272.0,10.0,927.09,243.0,전라남도 광양시 중마중앙로 26 (중동) ,34.9324,127.6985,12.0,0.8,16459303.57142857,329.0
11161,광양터미널점,전남팀,직영점,영업,2025-03-14,332.8,248.0,84.8,1106.87,233.0,전라남도 광양시 광양읍 순광로 688 ,34.9698,127.5908,9.6,0.8,9602839.285714284,192.0
11042,광주광천점,전남팀,직영점,영업,2023-02-11,507.0,484.0,23.0,1674.7,462.0,광주 서구 죽봉대로 122 ,35.1642,126.8841,13.4,1.1,13971821.42857143,279.0
10924,광주금호점,전남팀,직영점,영업,2020-01-22,251.0,204.0,47.0,830.38,177.0,광주광역시 서구 회재로 899 (금호동) ,35.1232,126.8621,8.1,0.3,7642196.428571428,153.0
11063,광주도천점,전남팀,직영점,영업,2023-07-20,273.67,239.85,33.82,904.7,219.85,광주광역시 광산구 임방울대로 581 (도천동) ,35.2099,126.8247,8.9,0.5,8675589.285714285,174.0
10833,광주동림지구점,전남팀,직영점,영업,2018-09-16,276.0,250.0,26.0,1133.42,230.0,광주광역시 서구 하남대로 662 (동천동) ,35.1716,126.865,10.0,0.8,10924196.42857143,218.0
10616,광주말바우시장점,전남팀,직영점,영업,2016-05-19,200.0,195.0,5.0,915.0,184.0,광주광역시 북구 동문대로 82 (두암동) ,35.171,126.9231,10.6,1.1,11687089.285714284,234.0
10717,광주매곡점,전남팀,직영점,영업,2017-09-08,402.0,335.0,67.0,1518.0,320.0,광주광역시 북구 설죽로 333 (매곡동) ,35.1891,126.8986,13.3,0.4,14814267.857142856,296.0
10686,광주봉선2호점,전남팀,직영점,영업,2017-06-15,264.0,248.0,16.0,1016.0,235.0,광주광역시 남구 봉선로 180 (봉선동) ,35.1228,126.9148,9.7,0.3,11213660.714285716,224.0
11060,광주삼각점,전남팀,직영점,영업,2023-06-23,346.0,265.0,81.0,1146.15,257.0,광주광역시 북구 우치로422번길 17 (삼각동) ,35.2039,126.9021,10.3,0.8,11389839.285714284,228.0
10507,광주상무점,전남팀,직영점,영업,2013-05-31,168.0,160.0,8.0,808.0,149.0,광주광역시 서구 상무시민로 75 (치평동) ,35.1555,126.8471,9.0,0.5,9642625.0,193.0
10969,광주송정점,전남팀,직영점,영업,2021-05-29,301.0,258.0,43.0,994.97,236.0,광주광역시 광산구 상무대로 338 (신촌동) ,35.1435,126.8029,11.0,0.5,12658946.42857143,253.0
10747,광주수완2호점,전남팀,직영점,영업,2018-01-25,323.0,285.0,38.0,1271.0,256.0,광주광역시 광산구 장신로 39 (장덕동) ,35.1911,126.8146,13.3,0.8,13549607.142857144,271.0
10393,광주수완점,전남팀,직영점,영업,2012-02-29,130.0,111.0,19.0,1281.33,107.0,광주광역시 광산구 임방울대로 347 (수완동) ,35.1911,126.8234,5.7,0.3,7341821.428571428,147.0
11232,광주신창2호점,전남팀,직영점,영업,2026-03-06,302.0,240.0,62.0,0.0,218.0,광주광역시 광산구 북문대로 370 (신창동) ,35.1914,126.8527,10.4,1.2,9569053.57142857,191.0
10474,광주신창점,전남팀,직영점,영업,2012-12-24,160.0,152.0,8.0,585.0,134.0,광주광역시 광산구 신창로 110 (신창동) ,35.1949,126.8382,8.8,0.3,9325910.714285716,187.0
10794,광주쌍암점,전남팀,직영점,영업,2018-06-22,306.0,280.0,26.0,1464.0,265.0,광주광역시 광산구 임방울대로801번길 8 (쌍암동) ,35.2182,126.8462,9.7,0.5,10491053.57142857,210.0
11167,광주양산2호점,전남팀,직영점,영업,2025-03-14,338.5,279.0,59.5,1191.72,257.0,광주광역시 북구 임방울대로 1034 (용두동) ,35.2122,126.8702,10.7,0.5,10943964.285714284,219.0
10559,광주양산점,전남팀,직영점,영업,2014-12-23,144.0,137.0,7.0,553.0,128.0,광주광역시 북구 임방울대로 1063 (용두동) ,35.2119,126.8736,4.8,0.4,5554767.857142857,111.0
10288,광주운남삼거리점,전남팀,직영점,영업,2011-01-28,108.0,103.0,5.0,449.0,92.0,광주광역시 광산구 목련로273번길 97 (운남동) ,35.1784,126.8245,6.4,0.3,5362750.0,107.0
10239,광주운암점,전남팀,직영점,영업,2010-05-27,300.0,290.0,10.0,1147.0,268.0,광주광역시 북구 북문대로 97 (운암동) ,35.1782,126.8761,9.6,0.4,10913267.857142856,218.0
11001,광주월산점,전남팀,직영점,영업,2022-02-25,329.0,282.0,47.0,1108.5,267.0,광주광역시 남구 대남대로 385(월산동) ,35.1454,126.8901,11.3,0.8,12867875.0,257.0
10200,광주일곡점,전남팀,직영점,영업,2009-09-25,140.0,130.0,10.0,466.0,128.0,광주광역시 북구 설죽로 503 (일곡동) ,35.204,126.8979,6.8,0.4,5850160.714285715,117.0
10860,광주전남대점,전남팀,직영점,영업,2018-12-22,301.0,286.0,15.0,1117.41,264.0,광주광역시 북구 용봉로 128 (중흥동) ,35.1729,126.9109,13.0,0.4,14798553.57142857,296.0
10525,광주첨단점,전남팀,직영점,영업,2013-10-03,150.0,140.0,10.0,711.0,131.0,광주광역시 광산구 첨단중앙로 126 (월계동) ,35.2167,126.8423,7.2,0.4,7043035.714285715,141.0
10037,광주충장로점,전남팀,직영점,영업,2005-10-01,427.0,382.0,45.0,1715.0,360.0,광주광역시 동구 충장로 80-5 (충장로2가) ,35.148,126.9159,18.0,1.1,20832517.85714286,417.0
10819,광주하남지구점,전남팀,직영점,영업,2018-06-29,300.0,290.0,10.0,1126.0,268.0,광주광역시 광산구 용아로 406 (하남동) ,35.1795,126.8051,15.9,0.7,19448678.57142857,389.0
11222,광주학동역점,전남팀,직영점,영업,2026-02-05,320.0,295.0,25.0,0.0,287.0,광주광역시 동구 남문로 686 (학동) ,35.1322,126.9295,11.0,0.8,11635732.142857144,233.0
10788,교대역점,강남팀,직영점,영업,2018-06-13,335.0,300.0,35.0,1489.0,292.0,서울특별시 서초구 서초대로 320 (서초동) 지하1층,37.4942,127.0166,9.7,1.0,13288553.57142857,266.0
71643,구)성황리마트개금점,서부산팀,유통점,영업,2019-05-17,226.0,200.0,26.0,690.0,187.0,부산광역시 부산진구 복지로 61 (개금동) ,35.1475,129.0207,5.1,0.0,,
11107,구로디지털단지역점,관악팀,직영점,영업,2024-05-10,277.0,247.0,30.0,826.36,220.0,서울특별시 구로구 시흥대로 575 (구로동) ,37.4844,126.902,20.9,0.8,27000160.714285713,540.0
10211,구로시장점,관악팀,직영점,영업,2009-12-24,132.9,113.4,19.5,430.0,102.4,서울특별시 구로구 구로동로26길 82 (구로동) ,37.49,126.8887,11.9,0.8,11320129.629629629,226.0
10054,구리2호점,구리팀,직영점,영업,2006-08-30,108.0,102.0,6.0,414.0,84.0,경기도 구리시 안골로77번길 38 (수택동) ,37.5992,127.1398,8.3,0.6,10000642.857142856,200.0
10295,구리역점,구리팀,직영점,영업,2011-02-28,227.0,217.0,10.0,611.0,211.0,경기도 구리시 경춘로 249 (인창동) ,37.6021,127.1427,9.6,0.9,11039392.857142856,221.0
11194,구리유통종합시장점,구리팀,직영점,영업,2025-08-30,605.0,539.0,66.0,3167.26,531.0,경기도 구리시 동구릉로136번길 57 (인창동) ,37.6131,127.1409,6.5,0.8,11205076.923076924,224.0
10970,구리인창동점,구리팀,직영점,영업,2021-05-23,238.0,210.0,28.0,924.75,197.0,경기도 구리시 동구릉로 63 (인창동) ,37.6057,127.134,5.1,0.4,6876232.142857143,138.0
10645,구리토평점,구리팀,직영점,영업,2016-11-25,260.3,250.0,10.3,995.76,230.0,경기도 구리시 벌말로 114 (토평동) ,37.5869,127.1484,10.0,0.6,10880428.57142857,218.0
10664,구미구평점,경북팀,직영점,영업,2017-03-04,530.0,470.0,60.0,1869.0,427.0,경상북도 구미시 인동남길 182 (구평동) ,36.0936,128.4341,14.5,0.8,12893928.57142857,258.0
10835,구미봉곡본점,경북팀,직영점,영업,2018-09-06,300.0,291.0,9.0,996.0,262.0,경상북도 구미시 야은로 288 (봉곡동) ,36.1389,128.3144,11.8,0.8,10791517.857142856,216.0
10936,구미신평점,경북팀,직영점,영업,2020-06-19,302.0,266.0,36.0,998.49,251.0,경상북도 구미시 구미대로 302 (신평동) ,36.1138,128.3641,6.5,0.5,6519750.0,130.0
10472,구미옥계점,경북팀,직영점,영업,2020-09-26,375.0,309.0,66.0,1928.0,280.0,경상북도 구미시 산호대로29길 7-17 (옥계동) ,36.1374,128.418,9.8,0.8,11582428.57142857,232.0
11151,구미원평칠성로점,경북팀,직영점,영업,2024-12-06,307.6,268.0,39.6,1105.98,260.0,경북 구미시 칠성로 99 ,36.1252,128.3566,9.2,0.5,9857928.57142857,197.0
10889,구미인의점,경북팀,직영점,영업,2019-04-26,289.0,264.0,25.0,976.59,244.0,경상북도 구미시 인동9길 3 (인의동) ,36.1019,128.4239,7.2,0.5,8193000.0,164.0
10145,구미중앙시장점,경북팀,직영점,영업,2008-12-11,269.0,245.0,24.0,1136.7,232.0,경상북도 구미시 구미중앙로11길 17 (원평동) ,36.1309,128.331,6.4,0.4,8401928.57142857,168.0
10778,구미형곡네거리점,경북팀,직영점,영업,2018-04-25,326.0,301.0,25.0,1285.0,286.0,경상북도 구미시 송정대로 5 (송정동) ,36.1168,128.3394,11.8,0.8,11309553.57142857,226.0
10793,구미확장지구점,경북팀,직영점,영업,2019-02-28,404.0,377.0,27.0,1787.4,348.0,경북 구미시 산동면 신당1로 58 ,36.1543,128.4287,8.5,0.8,9994553.57142857,200.0
11169,구산역점,신촌팀,직영점,영업,2025-03-28,311.0,232.0,79.0,1052.09,210.0,서울특별시 은평구 연서로 143 (갈현동) ,37.6118,126.9169,19.6,0.9,22971482.14285714,459.0
10289,구의역점,구리팀,직영점,영업,2011-02-12,410.0,395.0,15.0,2487.0,373.0,서울특별시 광진구 아차산로 378 (자양동) ,37.5365,127.0847,17.5,1.7,17897321.42857143,358.0
10609,구포구남점,동부산팀,직영점,영업,2016-05-12,220.0,213.0,7.0,722.0,195.0,부산광역시 북구 백양대로 1041 (구포동) ,35.1985,128.9959,9.1,1.3,9893875.0,198.0
11056,군산경암점,전북팀,직영점,영업,2023-05-31,294.0,269.0,25.0,970.36,263.0,전라북도 군산시 구암3.1로 149 (경암동) ,35.982,126.7358,15.7,0.8,18945517.85714286,379.0
10232,군산나운점,전북팀,직영점,영업,2010-04-01,105.0,100.0,5.0,396.0,96.0,전라북도 군산시 대학로 271 (나운동) ,35.9688,126.6972,6.0,0.3,5645607.142857143,113.0
11176,군산본점,전북팀,직영점,영업,2025-05-30,567.0,503.0,64.0,2710.17,488.0,전북특별자치도 군산시 문화로 80 (수송동) ,35.9695,126.7145,12.4,0.8,13340303.57142857,267.0
11065,군산소룡점,전북팀,직영점,영업,2023-07-29,300.0,250.0,50.0,991.56,228.0,전라북도 군산시 공단대로 629 (소룡동) ,35.9738,126.6784,11.3,0.8,12062892.857142856,241.0
10604,군산점,전북팀,직영점,영업,2016-03-31,280.0,250.0,30.0,1357.0,237.0,전라북도 군산시 수송로 188 (수송동) ,35.9636,126.7161,12.4,1.1,11657785.714285716,233.0
10799,군산중앙로점,전북팀,직영점,영업,2018-05-21,220.0,200.0,20.0,996.0,194.0,전라북도 군산시 중앙로 122 (중앙로2가) ,35.9845,126.7163,7.6,0.5,7402464.285714285,148.0
10175,군자역점,구리팀,직영점,영업,2009-05-14,77.0,77.0,0.0,448.0,73.0,서울특별시 광진구 천호대로 556 (능동) ,37.5567,127.0797,7.9,0.6,11129892.857142856,223.0
70385,굿모닝마트마포점,신촌팀,유통점,영업,2004-05-24,51.0,50.0,1.0,0.0,46.0,서울특별시 마포구 토정로 193 (구수동) ,37.5458,126.9326,1.0,0.0,,
70284,굿모닝마트부곡점,관악팀,유통점,영업,2003-09-26,52.3,52.3,0.0,0.0,48.3,경기도 의왕시 부곡시장4길 7 (삼동) ,37.3182,126.9524,1.0,0.0,,
70908,굿모닝마트속초점,강릉속초팀,유통점,영업,2009-01-16,88.0,80.0,8.0,0.0,76.0,강원도 속초시 조양상가길 25 (조양동) ,38.1901,128.58,1.0,0.0,,
70289,굿모닝마트신곡점,강북팀,유통점,영업,2003-10-11,34.0,34.0,0.0,0.0,30.0,경기도 의정부시 동일로 583 (신곡동) ,37.7401,127.0564,0.7,0.0,,
70286,굿모닝마트유진점,신촌팀,유통점,영업,2004-08-14,58.0,55.0,3.0,0.0,51.0,서울특별시 서대문구 통일로 484 (홍제동) ,37.5916,126.9431,1.0,0.0,,
70475,굿모닝마트전곡점,강북팀,유통점,영업,2005-01-29,46.0,46.0,0.0,0.0,42.0,경기도 연천군 전곡읍 전곡로 187-1 ,38.0282,127.0663,0.0,0.0,,
71000,굿모닝마트청주복대점,충북팀,유통행사,영업,2009-10-15,110.7,102.0,8.7,365.0,98.0,충청북도 청주시 흥덕구 죽천로 67(복대동) ,36.6386,127.4304,1.7,0.0,,
70636,굿모닝마트춘천점,춘천원주팀,유통점,영업,2006-11-28,98.0,98.0,0.0,323.0,94.0,강원도 춘천시 영서로 2195 (퇴계동) ,37.8603,127.7286,1.7,0.0,,
71061,굿모닝마트홍제점,신촌팀,유통행사,영업,2010-04-01,70.0,60.0,10.0,0.0,56.0,서울특별시 서대문구 통일로 397 ,37.5852,126.9475,0.0,0.0,,
70251,굿모닝마트화곡점,일산팀,유통점,영업,2003-07-25,54.0,54.0,0.0,0.0,50.0,서울특별시 강서구 등촌로5길 80 (화곡동) ,37.5331,126.859,1.0,0.0,,
10741,금산2호점,대전팀,직영점,영업,2017-11-04,315.0,300.0,15.0,1031.0,285.0,충청남도 금산군 금산읍 금산로 1528 ,36.1098,127.4914,8.2,0.8,10589053.57142857,212.0
10612,금촌본점,일산팀,직영점,영업,2016-05-13,299.5,267.2,32.3,1192.74,247.2,경기도 파주시 문화로 94 (금촌동) ,37.7626,126.7751,12.2,1.2,15669107.142857144,313.0
10135,길동점,강동팀,직영점,영업,2008-09-12,175.0,165.0,10.0,573.0,145.0,서울특별시 강동구 양재대로 1490 (길동) ,37.5388,127.1406,12.4,1.7,13494232.142857144,270.0
11052,김제서암점,전북팀,직영점,영업,2023-05-05,312.0,263.0,49.0,998.59,248.0,전라북도 김제시 남북로 247 (서암동) ,35.806,126.8832,8.9,0.5,11386535.714285716,228.0
10531,김제점,전북팀,직영점,영업,2013-12-06,160.0,150.0,10.0,655.0,137.0,전라북도 김제시 도작로 59 (신풍동) ,35.8001,126.9013,7.0,0.6,6776392.857142857,136.0
10846,김천부곡점,경북팀,직영점,영업,2018-10-31,489.2,448.6,40.6,1652.92,419.6,경상북도 김천시 송설로 155 (부곡동) ,36.1241,128.1018,7.9,0.5,9505321.42857143,190.0
10450,김천시청점,경북팀,직영점,영업,2012-10-28,338.8,283.0,55.8,999.0,268.0,경상북도 김천시 시청로 103 (신음동) ,36.1375,128.1166,13.5,0.8,11695250.0,234.0
11207,김천지좌덕곡점,경북팀,직영점,영업,2025-11-14,311.62,264.0,47.62,0.0,249.0,경상북도 김천시 영남대로 1984 (지좌동) ,36.1184,128.1459,5.2,0.5,6583196.428571428,132.0
10839,김포감정본점,일산팀,직영점,영업,2018-11-16,304.0,290.0,14.0,1116.0,268.0,경기도 김포시 중봉로 12 (감정동) ,37.6236,126.6977,9.4,0.6,9383607.142857144,188.0
11230,김포구래2호점,일산팀,직영점,영업,2026-02-27,428.0,283.0,145.0,0.0,236.0,경기도 김포시 양촌읍 김포한강10로 228 ,37.6476,126.6199,12.7,0.6,12847928.57142857,257.0
10748,김포구래점,일산팀,직영점,영업,2018-01-21,304.0,290.0,14.0,1879.0,275.0,경기도 김포시 김포한강8로 396 (구래동) ,37.6433,126.6251,18.7,1.3,17854553.57142857,357.0
11109,김포양곡점,일산팀,직영점,영업,2024-05-25,344.0,295.0,49.0,1096.08,273.0,경기도 김포시 양촌읍 양곡로 498 ,37.6557,126.6278,6.2,0.5,7071285.714285715,141.0
11103,김포운양역점,일산팀,직영점,영업,2024-04-30,271.0,239.0,32.0,1435.65,226.0,경기도 김포시 김포한강1로 227 (운양동) ,37.6542,126.6826,10.6,0.5,11720928.57142857,234.0
10389,김포장기점,일산팀,직영점,영업,2012-02-17,253.0,246.0,7.0,853.0,219.0,경기도 김포시 김포한강1로 68 (장기동) ,37.6442,126.6695,15.3,0.8,17607035.714285713,352.0
10986,김포통진점,일산팀,직영점,영업,2021-11-19,313.0,287.0,26.0,1908.2,272.0,경기도 김포시 통진읍 김포대로 2229 ,37.6893,126.5983,16.0,0.5,15747071.42857143,315.0
10780,김포풍무로점,일산팀,직영점,영업,2019-01-17,309.0,285.0,24.0,1353.12,263.0,경기도 김포시 풍무로 227 (사우동) ,37.6156,126.7253,10.9,0.8,11758892.857142856,235.0
10787,김해대청점,서부산팀,직영점,영업,2018-08-30,445.0,432.0,13.0,1805.4,403.0,경상남도 김해시 계동로 217 (대청동) ,35.1907,128.802,14.3,0.8,17311125.0,346.0
10939,김해본점,서부산팀,직영점,영업,2020-07-01,505.0,480.0,25.0,2336.26,458.0,경상남도 김해시 내외중앙로 97 (내동) ,35.2386,128.8671,14.9,0.8,17333696.42857143,347.0
10710,김해부원점,서부산팀,직영점,영업,2018-01-25,444.0,354.0,90.0,1649.0,332.0,경상남도 김해시 가락로 42 (부원동) ,35.2302,128.8824,10.9,0.8,13035375.0,261.0
10852,김해삼계2호점,서부산팀,직영점,영업,2018-12-13,300.0,270.0,30.0,3435.03,262.0,경상남도 김해시 가야로 155 (삼계동) ,35.2637,128.8721,13.7,0.8,16261035.714285716,325.0
10768,김해외동점,서부산팀,직영점,영업,2018-07-27,360.0,295.0,65.0,1239.0,280.0,경상남도 김해시 금관대로 1143 (외동) ,35.2302,128.8495,8.6,0.5,10264267.857142856,205.0
10746,김해율하2호점,서부산팀,직영점,영업,2017-12-30,467.0,317.0,150.0,1413.0,288.0,경상남도 김해시 율하3로 26 (율하동) ,35.1704,128.8134,12.2,0.8,13831517.857142856,277.0
11122,김해장유점,서부산팀,직영점,영업,2024-06-22,351.23,243.94,107.29,2153.34,235.94,경상남도 김해시 장유로 270 (부곡동) ,35.2008,128.8121,8.6,0.5,10487428.57142857,210.0
10757,김해진영2호점,서부산팀,직영점,영업,2018-01-01,140.0,110.0,30.0,470.0,99.0,경상남도 김해시 진영읍 여래로20번길 34-15 ,35.3061,128.731,6.6,0.5,7056892.857142857,141.0
10688,김해진영본점,서부산팀,직영점,영업,2017-06-08,315.0,278.0,37.0,1259.0,263.0,경상남도 김해시 진영읍 진산대로 65 ,35.3122,128.7266,8.9,0.5,9523464.285714284,190.0
10458,까치산2호점,일산팀,직영점,영업,2012-11-09,113.0,105.0,8.0,347.0,87.0,서울특별시 강서구 강서로 34 (화곡동) ,37.531,126.8474,10.2,0.8,12498750.0,250.0
10724,나주혁신점,전남팀,직영점,영업,2017-12-07,332.0,317.0,15.0,1863.0,295.0,전라남도 나주시 빛가람로 676 (빛가람동) ,35.0208,126.7855,14.0,0.8,17367053.57142857,347.0
10855,낙성대점,관악팀,직영점,영업,2019-02-24,223.9,202.3,21.6,946.85,168.3,서울특별시 관악구 남부순환로 1960 (봉천동) ,37.4757,126.9663,13.8,0.8,15706250.0,314.0
10409,난곡사거리점,관악팀,직영점,영업,2012-05-08,133.0,130.0,3.0,588.0,121.0,서울특별시 관악구 남부순환로 1474 (신림동) ,37.4815,126.9142,11.5,0.8,12278678.57142857,246.0
10863,남동탄점,수원팀,직영점,영업,2019-01-11,256.0,230.0,26.0,1527.9,224.0,경기도 화성시 동탄순환대로 257 (산척동) ,37.1706,127.1185,6.3,0.6,6589392.857142857,132.0
10433,남부터미널점,강남팀,직영점,영업,2012-08-24,215.0,200.0,15.0,1261.0,187.0,서울특별시 서초구 서초중앙로 36 (서초동) ,37.4856,127.0162,10.0,1.0,14061642.857142856,281.0
11097,남양주다산본점,구리팀,직영점,영업,2024-03-22,531.0,479.0,52.0,3751.73,471.0,경기도 남양주시 경춘로 490 (다산동) ,37.61,127.1674,16.9,0.8,15848785.714285716,317.0
11071,남양주오남점,구리팀,직영점,영업,2023-09-22,315.0,276.0,39.0,999.0,268.0,경기도 남양주시 오남읍 진건오남로 512 ,37.6796,127.21,10.7,0.6,10806017.857142856,216.0
11142,남양주월산점,구리팀,직영점,영업,2024-10-18,576.0,467.0,109.0,1947.2,452.0,경기도 남양주시 화도읍 경춘로 2283 ,37.6572,127.3411,15.7,0.0,14647089.285714284,293.0
11040,남양주장현점,구리팀,직영점,영업,2023-04-14,266.0,230.0,36.0,879.0,210.0,경기도 남양주시 진접읍 금강로 1483 ,37.7234,127.1906,13.5,1.1,16626464.285714284,333.0
11181,남양주차산점,구리팀,직영점,영업,2025-06-27,383.0,270.0,113.0,1263.05,255.0,경기도 남양주시 화도읍 수레로 1132 ,37.6383,127.3043,4.3,0.3,4457589.285714285,89.0
10770,남양주화도점,구리팀,직영점,영업,2018-06-20,459.0,425.0,34.0,1722.0,403.0,경기도 남양주시 화도읍 경춘로 1718 ,37.6555,127.282,14.5,1.1,13747035.714285716,275.0
10305,남영역점,종로팀,직영점,영업,2011-03-31,94.0,90.0,4.0,346.0,86.0,서울특별시 용산구 한강대로77길 12 (갈월동) ,37.5422,126.9719,7.7,0.7,9653732.142857144,193.0
10928,남원본점,전북팀,직영점,영업,2020-04-23,287.0,258.0,29.0,992.32,245.0,전라북도 남원시 용성로 197-9 (도통동) ,35.4153,127.394,9.5,0.4,10682392.857142856,214.0
11038,남위례역점,강동팀,직영점,영업,2022-12-30,285.0,265.0,20.0,1942.26,259.0,경기도 성남시 수정구 위례서일로 46(창곡동) ,37.4639,127.1405,7.7,1.0,10510875.0,210.0
10207,내방역점,강남팀,직영점,영업,2009-11-30,118.0,109.0,9.0,413.0,91.0,서울특별시 서초구 서초대로24길 3 (방배동) ,37.4873,126.9932,6.6,0.6,6111892.857142857,122.0
10766,내포신도시점,충남팀,직영점,영업,2019-02-28,325.0,306.0,19.0,1081.0,284.0,충청남도 홍성군 홍북읍 청사로150번길 20 ,36.657,126.6808,10.6,1.1,14229750.0,285.0
11135,노량진점,관악팀,직영점,영업,2024-09-14,255.0,234.0,21.0,995.89,228.0,서울특별시 동작구 만양로 105 (노량진동) ,37.5129,126.944,11.0,0.6,16528357.142857144,331.0
10830,노원문화의거리점,강북팀,직영점,영업,2018-09-09,260.0,250.0,10.0,912.4,244.0,서울특별시 노원구 노해로79길 6-19 (상계동) ,37.6555,127.0625,13.3,0.8,16457785.714285716,329.0
10533,노원본점,강북팀,직영점,영업,2013-12-10,197.0,183.0,14.0,852.89,170.0,서울특별시 노원구 동일로 1392 (상계동) ,37.6531,127.0613,9.3,0.8,11788303.57142857,236.0
10851,논산내동점,대전팀,직영점,영업,2018-11-17,322.0,253.0,69.0,1065.48,231.0,충청남도 논산시 시민로 193 (내동) ,36.1842,127.0978,14.6,0.8,16432517.857142856,329.0
10244,논산점,대전팀,직영점,영업,2010-05-28,208.0,200.0,8.0,686.0,189.0,충청남도 논산시 해월로167번길 8-10 (반월동) ,36.2062,127.0851,7.8,0.4,10207821.42857143,204.0
71657,농협달성유통센터점,대구팀,유통행사,영업,2019-07-01,61.0,56.0,5.0,199.0,52.0,대구광역시 달성군 화원읍 성천로 9 ,35.7993,128.4872,1.0,0.0,,
71696,농협동탄유통센터점,수원팀,유통점,영업,2020-09-10,566.0,531.0,35.0,1873.0,523.0,경기도 화성시 동탄순환대로27길 30 (영천동) ,37.2082,127.1044,15.0,0.8,,
10940,다산신도시점,구리팀,직영점,영업,2020-08-28,310.0,284.0,26.0,1108.0,269.0,경기도 남양주시 다산중앙로146번길 18 (다산동) ,37.6257,127.1544,13.3,0.9,13955750.0,279.0
10221,단대오거리점,강동팀,직영점,영업,2010-02-03,220.0,210.0,10.0,1992.0,190.0,경기도 성남시 중원구 산성대로372번길 18 (금광동) ,37.4447,127.1589,13.5,0.8,14875946.42857143,298.0
10518,답십리점,종로팀,직영점,영업,2013-08-10,160.0,141.0,19.0,1123.0,132.0,서울특별시 성동구 천호대로 308 (용답동) ,37.5652,127.0542,12.0,1.2,13318553.57142857,266.0
10992,당고개역점,강북팀,직영점,영업,2022-01-11,241.5,193.2,48.3,938.49,180.2,서울특별시 노원구 덕릉로126길 2(상계동) ,37.6702,127.0815,4.2,0.5,5171428.571428572,103.0
10117,당산점,신촌팀,직영점,영업,2008-03-26,82.1,79.1,3.0,284.0,68.1,서울특별시 영등포구 양평로 49 (당산동5가) ,37.5341,126.901,6.6,0.6,8430785.714285715,169.0
10660,당진본점,충남팀,직영점,영업,2017-01-20,310.0,285.0,25.0,1256.0,263.0,충청남도 당진시 당진중앙2로 221 (읍내동) ,36.8973,126.6356,13.6,1.1,17368321.42857143,347.0
10767,당진시곡점,충남팀,직영점,영업,2018-08-29,294.0,282.0,12.0,991.5,262.0,충청남도 당진시 서해로 6260 (시곡동) ,36.9024,126.6816,13.4,0.8,15869750.0,317.0
10243,대구감삼점,대구팀,직영점,영업,2010-06-13,160.0,155.0,5.0,888.0,142.0,대구광역시 달서구 달구벌대로 1657 (감삼동) ,35.8544,128.5472,7.9,0.5,9467339.285714284,189.0
11215,대구구지점,대구팀,직영점,영업,2025-12-12,302.03,269.0,33.03,0.0,254.0,대구광역시 달성군 구지면 창리로 111 ,35.6615,128.4159,7.6,0.5,9278875.0,186.0
11173,대구대실역점,대구팀,직영점,영업,2025-04-25,257.67,221.0,36.67,1281.7,208.0,대구광역시 달성군 다사읍 대실역남로 18 ,35.8562,128.4639,7.9,0.5,8814160.714285715,176.0
10831,대구대현점,경북팀,직영점,영업,2018-08-13,346.0,310.0,36.0,1674.61,295.0,대구광역시 북구 신암로 111 (대현동) ,35.8808,128.6113,12.9,0.8,13310535.714285716,266.0
10610,대구동성로본점,대구팀,직영점,영업,2016-05-13,322.0,276.0,46.0,996.0,240.0,대구광역시 중구 동성로 48-1 (동성로2가) ,35.8711,128.5959,16.9,0.8,17039089.285714287,341.0
10730,대구두산오거리점,대구팀,직영점,영업,2018-01-06,316.0,300.0,16.0,1000.0,285.0,대구광역시 수성구 무학로 142 (두산동) ,35.8298,128.6239,16.6,0.8,18885339.285714287,378.0
10951,대구들안길네거리점,대구팀,직영점,영업,2021-01-29,400.0,378.0,22.0,1346.0,356.0,대구광역시 수성구 청수로 81 (황금동) ,35.8408,128.6171,11.6,0.5,13405625.0,268.0
11099,대구매천시장역점,경북팀,직영점,영업,2024-04-12,331.0,235.5,95.5,1801.89,213.5,대구광역시 북구 매천로18길 29 (매천동) ,35.9042,128.5444,6.0,0.6,6135696.428571428,123.0
10771,대구명덕네거리점,대구팀,직영점,영업,2018-07-31,375.0,345.0,30.0,1245.0,323.0,대구광역시 남구 중앙대로 255 (대명동) ,35.8562,128.5902,16.5,1.1,19504142.85714286,390.0
10834,대구반야월점,대구팀,직영점,영업,2018-11-22,386.0,366.0,20.0,1479.78,351.0,대구광역시 동구 안심로 266 (동호동) ,35.8656,128.714,11.3,0.5,13167821.42857143,263.0
10996,대구반월당(환승)역점,대구팀,직영점,영업,2022-02-10,172.0,162.0,10.0,627.96,156.0,대구광역시 중구 달구벌대로 지하2100(덕산동) ,35.8644,128.5933,10.9,0.8,11402535.714285716,228.0
10276,대구복현점,경북팀,직영점,영업,2010-11-26,271.0,260.0,11.0,1128.0,247.0,대구광역시 북구 동북로 290 (복현동) ,35.8924,128.6216,10.3,0.8,12046875.0,241.0
10695,대구본리점,대구팀,직영점,영업,2017-06-23,300.0,270.0,30.0,1086.0,248.0,대구광역시 달서구 와룡로 130 (감삼동) ,35.8441,128.5376,13.3,0.8,15549964.285714284,311.0
10345,대구비산네거리점,경북팀,직영점,영업,2011-07-31,170.0,165.0,5.0,856.0,161.0,대구광역시 서구 국채보상로 362 (비산동) ,35.8718,128.5703,7.5,0.5,9909982.142857144,198.0
11198,대구산격유통단지점,경북팀,직영점,영업,2025-09-30,805.45,674.0,131.45,0.0,659.0,대구광역시 북구 유통단지로 60 (산격동) ,35.9063,128.6097,21.4,1.3,23211053.57142857,464.0
10727,대구상인네거리점,대구팀,직영점,영업,2017-09-29,367.0,337.0,30.0,1499.0,322.0,대구광역시 달서구 월배로 219 (상인동) ,35.8191,128.5371,11.3,0.5,12781250.0,256.0
10215,대구서부점,대구팀,직영점,영업,2010-01-15,221.0,212.0,9.0,1107.0,199.0,대구광역시 달서구 구마로 265 (성당동) ,35.8379,128.5569,11.9,0.8,14449053.57142857,289.0
10811,대구서재점,대구팀,직영점,영업,2018-06-21,302.0,290.0,12.0,999.0,282.0,대구광역시 달성군 다사읍 서재로 110 ,35.8733,128.4978,8.7,0.3,9812053.57142857,196.0
10411,대구성서이곡점,대구팀,직영점,영업,2012-05-26,325.0,306.1,18.9,1667.0,284.1,대구광역시 달서구 이곡공원로 26 (이곡동) ,35.8551,128.5103,10.6,0.8,13375839.285714284,268.0
10773,대구수성구청역점,대구팀,직영점,영업,2019-03-15,346.0,316.0,30.0,1088.82,294.0,대구광역시 수성구 달구벌대로 2529 (범어동) ,35.8592,128.6393,7.6,0.5,10201964.285714284,204.0
10950,대구시지2호점,대구팀,직영점,영업,2021-01-08,301.0,283.0,18.0,995.0,261.0,대구광역시 수성구 달구벌대로 3132 (시지동) ,35.8418,128.6994,10.9,0.5,11409964.285714284,228.0
10314,대구신당점,대구팀,직영점,영업,2011-05-02,225.2,211.4,13.8,1240.0,184.4,대구광역시 달서구 계대동문로 23-1 (신당동) ,35.8558,128.495,11.3,0.8,11247625.0,225.0
10636,대구신월성점,대구팀,직영점,영업,2016-09-03,330.0,310.0,20.0,1760.0,290.0,대구광역시 달서구 조암로 8 (월성동) ,35.826,128.5286,10.6,0.8,11620857.142857144,232.0
11196,대구역점,대구팀,직영점,영업,2025-09-18,500.0,380.0,120.0,0.0,365.0,대구광역시 중구 태평로 160 (북성로1가) ,35.8747,128.5953,10.2,0.8,11734928.57142857,235.0
10899,대구유가점,대구팀,직영점,영업,2019-06-27,330.0,315.0,15.0,1625.23,300.0,대구광역시 달성군 유가읍 테크노순환로12길 3 ,35.6939,128.4702,5.9,0.5,6768107.142857143,135.0
10351,대구율하점,대구팀,직영점,영업,2011-09-14,157.0,152.0,5.0,765.0,141.0,대구광역시 동구 안심로22길 50 (율하동) ,35.8632,128.697,6.3,0.2,7062267.857142857,141.0
10384,대구죽곡점,대구팀,직영점,영업,2012-02-10,100.0,95.0,5.0,433.0,91.0,대구광역시 달성군 다사읍 달구벌대로 855 ,35.8597,128.4637,5.9,0.5,6449196.428571428,129.0
10804,대구죽전네거리점,대구팀,직영점,영업,2018-05-30,330.0,320.0,10.0,1486.0,305.0,대구광역시 달서구 달구벌대로 1541-1 (죽전동) ,35.8503,128.5355,15.3,1.1,16635696.42857143,333.0
11027,대구중앙로점,대구팀,직영점,영업,2022-10-13,208.0,172.0,36.0,1161.19,159.0,대구광역시 중구 중앙대로 403(남일동) ,35.8691,128.5933,9.2,0.5,11209303.57142857,224.0
10662,대구진천점,대구팀,직영점,영업,2017-02-03,364.0,349.0,15.0,1976.0,341.0,"대구광역시 달서구 월배로 51 (유천동, 진천역AK그랑폴리스) ",35.8138,128.5203,14.6,0.8,15336732.142857144,307.0
10438,대구칠곡3지구점,경북팀,직영점,영업,2012-09-23,389.0,365.3,23.7,2940.26,343.3,대구광역시 북구 학정로 422 (구암동) ,35.9422,128.5639,18.9,0.8,22600857.14285714,452.0
10491,대구칠곡네거리점,경북팀,직영점,영업,2013-03-29,160.0,150.0,10.0,636.0,146.0,대구광역시 북구 칠곡중앙대로 401 (태전동) ,35.9315,128.548,8.9,0.5,11110446.42857143,222.0
10915,대구칠성점,경북팀,직영점,영업,2019-09-06,296.0,276.0,20.0,1128.61,242.0,대구광역시 북구 중앙대로 528 (칠성동2가) ,35.88,128.5962,7.2,0.8,8476785.714285715,170.0
11184,대구침산점,경북팀,직영점,영업,2025-06-20,253.1,240.1,13.0,1158.76,234.1,대구광역시 북구 침산로 148 (침산동) ,35.8895,128.5915,9.3,0.5,10423357.142857144,208.0
10646,대구테크노폴리스점,대구팀,직영점,영업,2016-10-21,381.0,349.0,32.0,1323.0,336.0,대구광역시 달성군 현풍읍 테크노대로 32 ,35.6888,128.4504,12.2,1.1,14697500.0,294.0
11017,대구화원점,대구팀,직영점,영업,2022-06-17,296.0,233.0,63.0,998.2,213.0,대구광역시 달성군 화원읍 성화로 2 ,35.8011,128.4926,9.6,0.5,10726446.42857143,215.0
10750,대구효신네거리2호점,대구팀,직영점,영업,2018-02-17,345.0,330.0,15.0,1275.0,301.0,대구광역시 수성구 화랑로 82 (만촌동) ,35.8719,128.6359,8.2,0.5,10941571.42857143,219.0
10712,대림2호점,신촌팀,직영점,영업,2017-09-23,303.0,286.0,17.0,1225.0,257.0,서울특별시 영등포구 도림로 157 (대림동) ,37.4946,126.899,11.2,0.5,12268142.857142856,245.0
11022,대림썬프라자점,신촌팀,직영점,영업,2022-07-29,282.0,260.0,22.0,1070.6,254.0,서울특별시 영등포구 신길로 39(대림동) ,37.496,126.9078,6.6,0.6,7204839.285714285,144.0
10478,대방남부점,관악팀,직영점,영업,2013-01-29,121.0,116.0,5.0,502.0,112.0,서울특별시 동작구 노량진로 4 (대방동) ,37.5124,126.9262,9.5,0.5,9083625.0,182.0
10386,대방점,관악팀,직영점,영업,2012-02-14,228.0,219.0,9.0,1078.0,192.0,서울특별시 동작구 여의대방로 190 (대방동) ,37.5038,126.9222,8.9,0.9,7821732.142857143,156.0
10665,대전가수원점,대전팀,직영점,영업,2017-03-04,220.7,208.0,12.7,999.0,195.0,대전광역시 서구 계백로 1135 (가수원동) ,36.3048,127.3495,9.5,0.8,11003500.0,220.0
10816,대전가오점,대전팀,직영점,영업,2018-06-30,184.0,166.0,18.0,574.0,160.0,대전광역시 동구 대전로 417 (가오동) ,36.3037,127.4542,8.6,0.5,9863642.857142856,197.0
10812,대전갈마2호점,대전팀,직영점,영업,2018-06-19,311.0,300.0,11.0,986.0,271.0,대전광역시 서구 신갈마로 187 (갈마동) ,36.3504,127.3677,10.3,0.9,11296035.714285716,226.0
10990,대전관평점,대전팀,직영점,영업,2021-12-23,249.0,225.0,24.0,1966.9,212.0,대전광역시 유성구 테크노중앙로 47(관평동) ,36.4271,127.391,14.5,0.8,17721392.85714286,354.0
11102,대전괴정점,대전팀,직영점,영업,2024-04-18,357.0,337.0,20.0,1894.12,329.0,대전광역시 서구 괴정로 30 (괴정동) ,36.3404,127.3776,10.6,0.5,13072767.857142856,261.0
11182,대전구암점,대전팀,직영점,영업,2025-06-28,302.0,242.0,60.0,997.59,220.0,대전광역시 유성구 유성대로 707 (구암동) ,36.3568,127.331,6.4,0.0,9146767.857142856,183.0
11123,대전노은3지구점,대전팀,직영점,영업,2024-06-20,229.0,191.0,38.0,765.86,178.0,대전광역시 유성구 지족로148번길 39-27 (지족동) ,36.3786,127.3057,4.0,0.3,4388285.714285715,88.0
10234,대전노은점,대전팀,직영점,영업,2010-04-23,300.0,263.0,37.0,1117.54,241.0,대전광역시 유성구 은구비남로33번길 59 (지족동) ,36.3748,127.3191,9.2,0.5,9352214.285714284,187.0
10841,대전도마2호점,대전팀,직영점,영업,2018-09-21,313.0,300.0,13.0,1455.33,285.0,대전광역시 서구 제비네1길 4 (도마동) ,36.3164,127.3783,9.2,0.5,10020642.857142856,200.0
10382,대전둔산타임월드점,대전팀,직영점,영업,2012-01-20,278.0,270.0,8.0,1290.0,250.0,대전 서구 둔산로 25 (둔산동) ,36.3521,127.3769,10.6,0.8,13876571.42857143,278.0
10869,대전문화점,대전팀,직영점,영업,2019-02-16,322.0,294.0,28.0,1077.44,272.0,대전광역시 중구 문화로 210 (문화동) ,36.3154,127.4083,8.2,0.5,8902553.57142857,178.0
10725,대전반석점,대전팀,직영점,영업,2017-09-15,324.0,300.0,24.0,1058.0,292.0,대전광역시 유성구 북유성대로316번길 11 (반석동) ,36.3933,127.3144,10.5,0.8,10497732.142857144,210.0
10504,대전배재대점,대전팀,직영점,영업,2013-05-20,128.0,119.0,9.0,471.0,110.0,대전광역시 서구 배재로172번길 3 (도마동) ,36.3239,127.3705,5.7,0.3,5887428.571428572,118.0
10626,대전본점,대전팀,직영점,영업,2016-10-29,540.0,508.0,32.0,2640.0,472.0,대전광역시 동구 동서대로1695번길 8 (용전동) ,36.3501,127.438,21.0,2.2,24084535.714285713,482.0
10782,대전시청점,대전팀,직영점,영업,2018-03-07,363.0,313.0,50.0,1965.0,277.0,대전광역시 서구 둔산중로32번길 47 (둔산동) ,36.3497,127.3895,11.9,0.5,15900107.142857144,318.0
10250,대전오류점,대전팀,직영점,영업,2010-07-06,175.0,168.0,7.0,950.0,155.0,대전광역시 중구 계백로 1693 (오류동) ,36.3214,127.4076,6.1,0.3,7214464.285714285,144.0
10195,대전용문점,대전팀,직영점,영업,2009-07-21,222.0,218.0,4.0,898.0,198.0,대전광역시 서구 계룡로 622 (용문동) ,36.3394,127.3913,12.2,0.8,14367928.57142857,287.0
10698,대전유성온천역점,대전팀,직영점,영업,2017-08-20,283.0,274.0,9.0,1067.0,247.0,대전광역시 유성구 대학로 10 (봉명동) ,36.3545,127.3422,12.2,1.1,13530482.142857144,271.0
11177,대전중리본점,대전팀,직영점,영업,2025-06-14,505.0,390.0,115.0,1607.61,354.0,대전광역시 대덕구 한밭대로 1154 (중리동) ,36.3586,127.4267,15.8,0.0,21209785.714285713,424.0
10065,대전중앙로역점,대전팀,직영점,영업,2007-02-16,71.0,71.0,0.0,213.0,67.0,대전광역시 중구 중앙로 지하145(대흥동) 신지하상가 B특1호,36.328,127.4241,8.8,1.1,10223518.51851852,204.0
10624,대전중촌네거리점,대전팀,직영점,영업,2016-07-03,807.0,522.0,285.0,0.0,479.0,대전광역시 중구 대종로 625 (중촌동) ,36.3367,127.4154,15.3,1.1,17727446.42857143,355.0
10486,대전태평점,대전팀,직영점,영업,2013-02-20,280.0,256.0,24.0,1073.65,243.0,"대전광역시 중구 태평로 80 (태평동, 삼부아파트1단지) ",36.3246,127.3949,9.9,0.8,11858607.142857144,237.0
10955,대지시장점,강북팀,직영점,영업,2021-04-13,195.0,180.0,15.0,852.0,167.0,서울특별시 강북구 솔샘로 239 (미아동) ,37.62,127.0194,9.2,0.8,9783142.857142856,196.0
11121,대치역사거리점,강남팀,직영점,영업,2024-06-28,160.0,146.0,14.0,1139.96,140.0,서울특별시 강남구 삼성로 155 (대치동) ,37.4939,127.063,5.7,0.7,9593892.857142856,192.0
10875,대학로점,종로팀,직영점,영업,2019-04-20,200.0,185.0,15.0,634.7,151.0,서울특별시 종로구 대학로 138-2 (혜화동) ,37.5835,127.0019,11.5,0.5,14980571.42857143,300.0
71621,더제이마트위례점,강동팀,유통행사,영업,2018-11-09,21.8,20.8,1.0,0.0,16.8,경기 성남시 수정구 위례동로 135-6 ,37.4731,127.1498,0.0,0.0,,
10529,덕소점,구리팀,직영점,영업,2013-11-07,230.0,221.0,9.0,748.0,210.0,경기도 남양주시 와부읍 덕소로97번길 9 ,37.5861,127.2133,9.6,0.9,10335285.714285716,207.0
10798,도곡점,강남팀,직영점,영업,2018-03-30,120.0,110.0,10.0,354.0,99.0,서울특별시 강남구 도곡로 188 (도곡동) ,37.4918,127.04,5.5,0.5,5984732.142857143,120.0
10999,도농역점,구리팀,직영점,영업,2022-04-28,210.0,194.0,16.0,701.43,188.0,경기도 남양주시 경춘로 433(다산동) ,37.6088,127.1612,5.3,0.6,8332750.0,167.0
10241,독산점,관악팀,직영점,영업,2010-05-31,158.0,150.0,8.0,552.0,130.0,서울특별시 금천구 시흥대로 403 (독산동) ,37.4698,126.8975,12.0,1.2,11650232.142857144,233.0
11226,돌곶이역점,종로팀,직영점,영업,2026-02-04,222.0,192.0,30.0,0.0,179.0,"서울특별시 성북구 화랑로 265 (장위동, H하우스 장위) ",37.6118,127.0582,12.2,0.5,13879321.42857143,278.0
10512,동광양점,전남팀,직영점,영업,2013-07-18,220.0,200.0,20.0,729.0,187.0,전라남도 광양시 광장로 142-8 (중동) ,34.9364,127.6958,11.6,0.8,13669178.57142857,273.0
10394,동광주점,전남팀,직영점,영업,2012-03-07,179.0,173.0,6.0,594.21,155.0,광주광역시 북구 동문대로 183 (두암동) ,35.1788,126.929,9.2,0.4,10368071.42857143,207.0
10902,동대구역점,대구팀,직영점,영업,2019-07-17,421.0,396.0,25.0,1218.82,381.0,대구광역시 동구 동대구로 지하 530 (신천동) 동대구역 1호선 지하상가 1호,35.8774,128.6273,12.5,1.1,16573250.0,331.0
10543,동대문점,종로팀,직영점,영업,2014-05-30,80.0,75.0,5.0,360.0,73.0,서울특별시 종로구 율곡로 309 (창신동) ,37.5703,127.01,6.3,0.3,7740160.714285715,155.0
11180,동두천상패점,강북팀,직영점,영업,2025-06-14,268.0,252.0,16.0,922.5,246.0,경기도 동두천시 삼육사로 805 (상패동) ,37.9057,127.0422,8.9,0.5,10215339.285714284,204.0
10634,동두천지행점,강북팀,직영점,영업,2016-08-27,362.0,342.0,20.0,1241.0,322.0,경기도 동두천시 지행로 67 (지행동) ,37.8927,127.0547,20.0,1.3,20911071.42857143,418.0
10619,동묘점,종로팀,직영점,영업,2016-06-17,320.0,267.3,52.7,1969.0,252.3,"서울특별시 종로구 종로 347 (숭인동, 롯데캐슬 천지인) ",37.5741,127.016,17.3,0.9,21498714.285714287,430.0
11062,동탄그랑파사쥬점,수원팀,직영점,영업,2023-06-30,335.0,310.0,25.0,2808.03,302.0,경기도 화성시 동탄대로5길 15 (송동) ,37.1661,127.1051,10.5,0.5,14316767.857142856,286.0
11145,동탄목동점,수원팀,직영점,영업,2024-10-31,395.0,363.0,32.0,1459.9,348.0,경기도 화성시 왕배산길 7 (목동) ,37.1818,127.1229,10.0,0.6,13522142.857142856,270.0
11002,동탄반송점,수원팀,직영점,영업,2022-02-26,304.0,278.0,26.0,990.2,256.0,경기도 화성시 10용사3길 21(반송동) ,37.1933,127.067,8.5,0.5,9143803.57142857,183.0
11197,동탄역점,수원팀,직영점,영업,2025-09-13,353.0,292.0,61.0,0.0,284.0,경기 화성시 동탄역로 102 ,37.1959,127.0982,8.0,0.6,10142017.857142856,203.0
10212,동탄점,수원팀,직영점,영업,2009-12-15,140.0,140.0,0.0,881.0,129.0,경기도 화성시 동탄반석로 134 (반송동) ,37.201,127.0714,7.5,0.4,8845142.857142856,177.0
10489,동해천곡점,강릉속초팀,직영점,영업,2013-03-16,224.6,218.6,6.0,925.23,205.6,강원도 동해시 한섬로 113-7 (천곡동) ,37.5223,129.1159,13.8,0.8,17705250.0,354.0
10751,둔촌동역점,강동팀,직영점,영업,2018-05-12,420.0,395.0,25.0,1578.0,387.0,서울특별시 강동구 양재대로 1355 (성내동) ,37.5274,127.1356,18.3,1.2,21280642.85714286,426.0
11133,뚝섬역점,종로팀,직영점,영업,2024-08-31,141.0,130.0,11.0,1305.92,126.0,서울특별시 성동구 아차산로 6 (성수동1가) ,37.5477,127.0451,7.5,0.5,11039732.142857144,221.0
71792,롯데던던동대문점,종로팀,유통점,영업,2024-09-27,491.0,457.0,34.0,2212.6,449.0,서울특별시 중구 을지로 264 (을지로6가) ,37.5658,127.0071,33.2,1.7,,
71478,롯데마트거제점,창원팀,유통점,영업,2015-02-25,22.0,20.0,2.0,0.0,0.0,"경상남도 거제시 서간도길 9-9 (옥포동, 거제엘크루랜드마크,롯데마트) ",34.8875,128.6918,0.7,0.0,,
71028,롯데마트검단점,북인천팀,유통점,영업,2009-12-24,58.0,58.0,0.0,0.0,54.0,인천광역시 서구 원당대로 581 (마전동) ,37.5945,126.6646,1.0,0.0,,
71585,롯데마트경기양평점,구리팀,유통점,영업,2018-03-13,75.0,71.4,3.6,0.0,67.4,경기도 양평군 양평읍 남북로 76 ,37.4895,127.5027,4.7,0.0,,
71359,롯데마트계양점,북인천팀,유통점,영업,2012-09-12,50.0,50.0,0.0,0.0,46.0,인천광역시 계양구 장제로 822 (계산동) ,37.5408,126.736,0.0,0.0,,
71118,롯데마트고양점,일산팀,유통점,영업,2010-08-03,804.3,760.9,43.4,0.0,752.9,경기도 고양시 덕양구 충장로 150 (행신동) ,37.6252,126.8361,12.8,1.1,,
70658,롯데마트군산점,전북팀,유통점,영업,2007-02-23,250.0,220.0,30.0,825.0,214.0,전라북도 군산시 수송로 185 (수송동) ,35.9648,126.7164,6.2,0.8,,
71764,롯데마트권선점,수원팀,유통점,영업,2023-09-05,80.0,80.0,0.0,0.0,76.0,경기도 수원시 권선구 동수원로 232 (권선동) ,37.2503,127.0347,2.4,0.0,,
70086,롯데마트금천점,관악팀,유통점,영업,2018-12-13,97.0,92.0,5.0,320.0,88.0,서울특별시 금천구 시흥대로 315 (독산동) ,37.461,126.8963,3.0,0.0,,
71545,롯데마트김천점,경북팀,유통점,영업,2017-04-13,119.0,113.0,6.0,393.0,109.0,경상북도 김천시 시청로 80 (신음동) ,36.136,128.1178,1.0,0.0,,
71271,롯데마트김포공항점,일산팀,유통점,영업,2022-08-06,84.0,78.0,6.0,0.0,74.0,서울특별시 강서구 하늘길 지하 77 (방화동) ,37.5623,126.8013,2.2,0.5,,
71569,롯데마트김포한강점,일산팀,유통점,영업,2017-09-15,30.0,30.0,0.0,0.0,26.0,"경기도 김포시 김포한강2로 41 (장기동, e편한세상 캐널시티) ",37.6413,126.6776,1.3,0.0,,
71426,롯데마트김해점,서부산팀,유통점,영업,2013-08-28,814.0,783.0,31.0,2686.2,775.0,경상남도 김해시 김해대로 2330 (부원동) ,35.2255,128.882,19.2,1.3,,
71323,롯데마트나주점,전남팀,유통점,영업,2012-05-03,59.2,54.2,5.0,0.0,50.2,전라남도 나주시 내동길 15 (송월동) ,35.0132,126.7129,0.0,0.0,,
71559,롯데마트남악점,전남팀,유통점,영업,2017-06-24,20.0,20.0,0.0,0.0,16.0,전라남도 무안군 삼향읍 남악로162번길 80 ,34.8036,126.4647,0.0,0.0,,
71386,롯데마트남원점,전북팀,유통점,영업,2012-12-13,40.0,39.0,1.0,0.0,35.0,전라북도 남원시 춘향로 96 (향교동) ,35.4233,127.3925,0.0,0.0,,
70873,롯데마트당진점,충남팀,유통점,영업,2008-11-13,49.0,49.0,0.0,0.0,45.0,충청남도 당진시 정안로 20 (원당동) ,36.9058,126.6463,3.1,0.0,,
71110,롯데마트대구점,대구팀,유통점,영업,2010-07-15,48.3,47.3,1.0,0.0,43.3,대구광역시 동구 안심로 80 (율하동) ,35.8685,128.6933,2.8,0.0,,
70735,롯데마트대덕테크노점,대전팀,유통점,영업,2007-11-15,40.0,38.0,2.0,0.0,34.0,대전광역시 유성구 테크노중앙로 14 (관평동) ,36.4269,127.387,0.3,0.0,,
70865,롯데마트대전노은점,대전팀,유통점,영업,2008-10-23,80.0,73.0,7.0,0.0,69.0,대전광역시 유성구 북유성대로 206 (하기동) ,36.3844,127.3215,1.0,0.0,,
71083,롯데마트덕소점,구리팀,유통행사,영업,2010-06-01,70.0,68.0,2.0,0.0,64.0,경기도 남양주시 와부읍 월문천로 33 롯데마트 덕소점 ,37.5847,127.214,2.0,0.0,,
70999,롯데마트동두천점,강북팀,유통점,영업,2018-01-20,80.0,74.4,5.6,0.0,70.4,경기도 동두천시 평화로2169번길 21 (송내동) ,37.8809,127.0531,1.0,0.0,,
70818,롯데마트동래점,동부산팀,유통점,영업,2008-05-29,164.0,155.2,8.8,541.0,149.2,부산광역시 동래구 중앙대로 1393 (온천동) ,35.2117,129.0775,6.3,0.2,,
70172,롯데마트마산점,창원팀,유통점,영업,2002-11-25,42.0,42.0,0.0,0.0,38.0,경상남도 창원시 마산합포구 신마산시장길 33 (창포동3가) ,35.1813,128.5607,2.4,0.0,,
71168,롯데마트마석점,구리팀,유통점,영업,2010-11-25,24.0,22.0,2.0,0.0,18.0,경기도 남양주시 화도읍 경춘로 1992 ,37.6501,127.3093,1.0,0.0,,
71753,롯데마트맥스금천점,관악팀,유통점,영업,2023-05-27,214.0,204.0,10.0,706.0,198.0,서울특별시 금천구 두산로 71 (독산동) ,37.4707,126.8956,8.0,0.6,,
71721,롯데마트맥스목포점,전남팀,유통점,영업,2022-01-27,62.0,62.0,0.0,204.6,58.0,전라남도 목포시 원형서로 15(상동) ,34.7972,126.4295,1.1,0.1,,
71720,롯데마트맥스상무점,전남팀,유통점,영업,2022-01-21,193.0,181.0,12.0,637.0,175.0,광주광역시 서구 시청로 40(치평동) ,35.1524,126.8524,6.8,0.3,,
71799,롯데마트맥스창원중앙점,창원팀,유통점,영업,2024-11-23,555.4,512.0,43.4,1832.8,504.0,경상남도 창원시 성산구 중앙대로 123 (중앙동) ,35.2256,128.6803,18.1,1.3,,
71222,롯데마트부산점,서부산팀,유통점,영업,2011-04-27,116.0,116.0,0.0,383.0,112.0,부산광역시 부산진구 신천대로 241 (부암동) ,35.1633,129.0493,2.0,0.0,,
70281,롯데마트부평역점,남인천팀,유통점,영업,2004-06-25,38.0,38.0,0.0,0.0,34.0,인천광역시 부평구 광장로 16 (부평동) ,37.4896,126.7234,1.0,0.0,,
70655,롯데마트부평점,남인천팀,유통점,영업,2006-12-22,60.0,57.0,3.0,0.0,53.0,인천광역시 부평구 마장로 296 (산곡동) ,37.505,126.7041,2.3,0.3,,
70602,롯데마트사상점,서부산팀,유통점,영업,2006-05-18,27.6,26.6,1.0,0.0,22.6,부산광역시 사상구 낙동대로 733 (엄궁동) ,35.1276,128.9684,1.0,0.0,,
70061,롯데마트사하점,서부산팀,유통점,영업,2001-04-20,21.1,20.1,1.0,0.0,0.0,부산광역시 사하구 을숙도대로 610 (장림동) ,35.0848,128.9723,0.0,0.0,,
71085,롯데마트삼계점,창원팀,유통점,영업,2010-06-01,10.0,10.0,0.0,0.0,0.0,경상남도 창원시 마산회원구 내서읍 경남대로 927 ,35.233,128.5041,0.0,0.0,,
70767,롯데마트삼산점,남인천팀,유통점,영업,2007-12-13,155.0,148.7,6.3,512.0,142.7,인천광역시 부평구 체육관로 14 (삼산동) ,37.5084,126.7331,8.2,0.5,,
71161,롯데마트삼양점,강북팀,유통점,영업,2011-10-07,23.0,23.0,0.0,0.0,0.0,서울특별시 강북구 삼양로 247 (미아동) ,37.6255,127.0177,1.7,0.0,,
71089,롯데마트상당점,충북팀,유통점,영업,2010-06-01,39.0,32.0,7.0,0.0,28.0,충청북도 청주시 상당구 용암북로160번길 60 (용암동) ,36.6204,127.5161,0.7,0.0,,
71384,롯데마트상록수점,안산팀,유통점,영업,2012-11-29,160.0,149.0,11.0,528.0,143.0,"경기도 안산시 상록구 반석로 8 (본오동, 한양아파트) ",37.2958,126.861,3.1,0.1,,
70087,롯데마트서대전점,대전팀,유통점,영업,2001-12-27,806.0,695.0,111.0,2660.0,687.0,대전광역시 유성구 유성대로 26-37 (원내동) ,36.3005,127.3248,16.0,1.1,,
70709,롯데마트서산점,충남팀,유통점,영업,2007-06-30,30.0,29.0,1.0,0.0,25.0,충청남도 서산시 충의로 27 (예천동) ,36.7737,126.4383,0.0,0.0,,
71546,롯데마트서울양평점,신촌팀,유통점,영업,2017-04-27,54.0,50.0,4.0,0.0,46.0,서울특별시 영등포구 선유로 138 (양평동3가) ,37.5261,126.8916,0.0,0.0,,
71603,롯데마트서울역점,종로팀,유통점,영업,2018-04-01,131.1,125.5,5.6,433.0,121.5,서울특별시 중구 청파로 426 (봉래동2가) ,37.5574,126.9695,6.7,0.7,,
71661,롯데마트서초점,강남팀,유통점,영업,2019-07-15,55.0,55.0,0.0,0.0,51.0,"서울특별시 서초구 서초대로38길 12 (서초동, 마제스타시티, 힐스테이트 서리풀) ",37.4905,127.0054,1.3,0.0,,
71116,롯데마트석사점,춘천원주팀,유통점,영업,2010-07-29,137.0,132.42,4.58,452.0,128.42,강원도 춘천시 세실로 108 (석사동) ,37.8668,127.7591,2.7,0.0,,
71441,롯데마트송도점,남인천팀,유통점,영업,2013-12-19,23.0,23.0,0.0,0.0,0.0,인천광역시 연수구 컨벤시아대로 177 (송도동) ,37.3883,126.6433,0.7,0.0,,
71086,롯데마트송파점,강남팀,유통행사,영업,2010-06-01,50.0,50.0,0.0,0.0,39.0,서울특별시 송파구 중대로 80 롯데마트송파점 ,37.4918,127.1178,2.3,0.3,,
70868,롯데마트시티세븐점,창원팀,유통점,영업,2008-10-28,66.0,66.0,0.0,0.0,62.0,경상남도 창원시 의창구 원이대로 320 (대원동) ,35.2344,128.6677,1.0,0.0,,
71087,롯데마트시화점,안산팀,유통행사,영업,2010-06-01,48.0,48.0,0.0,0.0,44.0,경기도 시흥시 마유로238번길 26 ,37.3376,126.7307,1.0,0.0,,
71548,롯데마트시흥배곧점,안산팀,유통점,영업,2017-05-29,70.0,70.0,0.0,0.0,66.0,경기도 시흥시 서울대학로278번길 67 (정왕동) ,37.3689,126.7313,4.0,0.0,,
71361,롯데마트시흥점,안산팀,유통점,영업,2012-09-13,59.0,54.0,5.0,0.0,50.0,경기도 시흥시 비둘기공원로 28 (대야동) ,37.443,126.792,4.1,0.0,,
71439,롯데마트아산터미널점,충남팀,유통점,영업,2013-12-19,78.0,78.0,0.0,0.0,74.0,충청남도 아산시 번영로 225 (모종동) ,36.7846,127.0159,1.0,0.0,,
71433,롯데마트안산선부점,안산팀,유통점,영업,2013-10-23,161.0,153.0,8.0,531.0,147.0,경기도 안산시 단원구 달미로 64 (선부동) ,37.3414,126.8155,5.3,0.3,,
70628,롯데마트안성점,평택팀,유통점,영업,2006-10-03,87.0,83.0,4.0,0.0,0.0,경기도 안성시 공도읍 서동대로 4478 ,37.0078,127.1995,1.1,0.1,,
71597,롯데마트양덕점,창원팀,유통점,영업,2018-04-19,71.0,71.0,0.0,0.0,67.0,"경상남도 창원시 마산회원구 삼호로 80 (양덕동, 메트로시티 2단지) ",35.2237,128.5846,0.7,0.0,,
70612,롯데마트여수점,전남팀,유통점,영업,2006-07-06,46.0,45.0,1.0,0.0,41.0,전라남도 여수시 국포1로 36 (국동) ,34.7284,127.7215,0.7,0.0,,
70982,롯데마트여천점,전남팀,유통점,영업,2009-08-19,74.0,72.0,2.0,0.0,68.0,전라남도 여수시 무선로 187 (선원동) ,34.7768,127.6515,1.5,0.1,,
70066,롯데마트연수점,남인천팀,유통점,영업,2001-07-26,531.0,479.0,52.0,1752.0,471.0,인천광역시 연수구 청능대로 87 (청학동) ,37.4151,126.6752,14.6,0.5,,
70656,롯데마트영종도점,남인천팀,유통점,영업,2006-12-21,36.0,36.0,0.0,0.0,0.0,인천광역시 중구 흰바위로 51 (운서동) ,37.4927,126.4912,0.7,0.0,,
70230,롯데마트오산점,평택팀,유통점,영업,2003-05-25,28.0,27.0,1.0,0.0,23.0,경기도 오산시 경기대로 271 (오산동) ,37.1495,127.073,1.0,0.0,,
70092,롯데마트울산점,울산팀,유통점,영업,2007-06-15,20.0,20.0,0.0,0.0,16.0,울산광역시 남구 삼산로 74 (달동) ,35.534,129.3159,1.7,0.0,,
70601,롯데마트울산진장점,울산팀,유통점,영업,2006-05-11,27.0,27.0,0.0,0.0,23.0,울산광역시 북구 진장유통로 64 (진장동) ,35.576,129.359,0.7,0.0,,
70466,롯데마트웅상점,동부산팀,유통점,영업,2004-12-29,96.0,91.0,5.0,317.0,87.0,경상남도 양산시 삼호1길 34 (삼호동) ,35.4126,129.167,3.4,0.0,,
70801,롯데마트월드컵점,전남팀,유통점,영업,2008-03-17,36.6,35.6,1.0,0.0,31.6,광주광역시 서구 금화로 240 (풍암동) ,35.1336,126.8748,0.0,0.0,,
71634,롯데마트월드타워점,강남팀,유통점,영업,2019-02-22,60.0,55.0,5.0,0.0,51.0,서울특별시 송파구 올림픽로 300 (신천동) ,37.5137,127.1043,4.0,0.3,,
70293,롯데마트의왕점,관악팀,유통점,영업,2003-10-17,259.0,233.0,26.0,855.0,227.0,경기도 의왕시 계원대학로 7 (내손동) ,37.3805,126.9729,10.0,0.6,,
71626,롯데마트이천점,용인팀,유통점,영업,2019-01-17,81.4,60.0,21.4,0.0,56.0,"경기도 이천시 구만리로 191(안흥동, 이천 롯데캐슬 골드스카이) ",37.2743,127.4545,2.0,0.0,,
70683,롯데마트익산점,전북팀,유통점,영업,2023-04-12,75.0,70.0,5.0,0.0,66.0,전라북도 익산시 무왕로 1053 (영등동) ,35.9593,126.9742,1.1,0.1,,
70659,롯데마트장암점,강북팀,유통점,영업,2006-12-28,84.0,79.0,5.0,0.0,75.0,경기도 의정부시 장곡로 224 (장암동) ,37.7237,127.0531,3.4,0.0,,
70881,롯데마트전주점,전북팀,유통점,영업,2008-11-27,73.0,70.0,3.0,0.0,0.0,전라북도 전주시 완산구 바우배기2길 11 (효자동2가) ,35.8172,127.1028,2.3,0.3,,
71025,롯데마트정읍점,전북팀,유통점,영업,2009-12-22,50.5,49.0,1.5,0.0,45.0,전라북도 정읍시 벚꽃로 85 (농소동) ,35.5793,126.8398,1.7,0.0,,
70811,롯데마트제주점,제주팀,유통점,영업,2008-04-24,30.0,27.0,3.0,0.0,0.0,제주특별자치도 제주시 연북로 1 (노형동) ,33.4824,126.4818,0.9,0.2,,
71152,롯데마트제천점,충북팀,유통점,영업,2010-12-02,113.3,109.0,4.3,374.0,105.0,충청북도 제천시 용두대로 111 (하소동) ,37.1401,128.2008,2.7,0.0,,
70062,롯데마트주엽점,일산팀,유통점,영업,2001-05-01,247.0,247.0,0.0,815.0,241.0,경기도 고양시 일산서구 중앙로 1496 (주엽동) ,37.6737,126.7546,6.4,0.0,,
70240,롯데마트중계점,강북팀,유통점,영업,2003-06-20,103.0,101.0,2.0,339.0,97.0,서울특별시 노원구 노원로 330 (중계동) ,37.6468,127.0709,2.0,0.0,,
71586,롯데마트진주점,창원팀,유통점,영업,2018-01-30,107.0,100.0,7.0,353.0,96.0,경상남도 진주시 동진로 440 (충무공동) ,35.1802,128.1398,1.7,0.0,,
70539,롯데마트진해점,창원팀,유통점,영업,2005-07-16,800.0,627.5,172.5,2640.0,619.5,경상남도 창원시 진해구 진해대로 762 (석동) ,35.1582,128.6988,14.9,0.8,,
70395,롯데마트천안성정점,충남팀,유통점,영업,2004-06-04,41.0,38.0,3.0,0.0,34.0,충청남도 천안시 서북구 성정두정로 1 (성정동) ,36.8263,127.1401,3.5,0.1,,
70328,롯데마트천천점,수원팀,유통행사,영업,2004-02-18,91.5,91.5,0.0,302.0,87.5,경기도 수원시 장안구 만석로19번길 25-10 롯데마트 ,37.2964,126.9823,2.7,0.0,,
71754,롯데마트첨단점,전남팀,유통점,영업,2023-06-03,146.0,120.0,26.0,482.0,116.0,광주광역시 광산구 첨단강변로99번길 22 (쌍암동) 롯데마트 1층,35.2168,126.8519,3.7,0.3,,
71387,롯데마트청라점,북인천팀,유통점,영업,2012-12-12,58.0,56.0,2.0,0.0,52.0,"인천광역시 서구 청라커낼로 252 (청라동, 청라 롯데캐슬) ",37.5303,126.6478,1.0,0.0,,
71124,롯데마트청량리점,종로팀,유통점,영업,2010-08-20,22.0,22.0,0.0,0.0,0.0,서울특별시 동대문구 왕산로 214 (전농동) ,37.5842,127.0511,0.1,0.1,,
70594,롯데마트청주점,충북팀,유통점,영업,2006-03-29,24.0,20.0,4.0,0.0,16.0,충청북도 청주시 흥덕구 풍산로 15 (가경동) ,36.6267,127.4322,0.0,0.0,,
71043,롯데마트춘천점,춘천원주팀,유통점,영업,2010-02-08,42.0,42.0,0.0,0.0,31.0,강원도 춘천시 방송길 84 (온의동) ,37.8686,127.7181,1.0,0.0,,
70609,롯데마트충주점,충북팀,유통점,영업,2006-06-09,246.0,238.0,8.0,812.0,232.0,충청북도 충주시 충원대로 626 (칠금동) ,36.9825,127.9142,9.9,0.8,,
70327,롯데마트통영점,창원팀,유통점,영업,2004-02-14,34.0,34.0,0.0,0.0,0.0,경상남도 통영시 무전대로 65 (무전동) ,34.8606,128.4282,0.7,0.0,,
71314,롯데마트평촌점,관악팀,유통점,영업,2012-03-30,80.0,78.2,1.8,0.0,74.2,경기도 안양시 동안구 시민대로160번길 20 (호계동) ,37.3886,126.9503,2.5,0.5,,
70949,롯데마트평택점,평택팀,유통점,영업,2009-06-03,504.0,437.0,67.0,1663.2,429.0,경기도 평택시 평택5로 30 (합정동) ,36.9884,127.1118,8.5,0.5,,
70630,롯데마트포항점,울산팀,유통행사,영업,2007-02-21,34.0,34.0,0.0,0.0,30.0,경상북도 포항시 남구 지곡로 247 ,36.0284,129.3243,0.7,0.0,,
71128,롯데마트행당역점,종로팀,유통점,영업,2010-08-24,81.0,79.0,2.0,0.0,75.0,서울특별시 성동구 행당로 84 (행당동) ,37.5566,127.0287,2.0,0.0,,
70057,롯데마트화명점,동부산팀,유통점,영업,2017-01-17,73.9,69.0,4.9,0.0,65.0,부산광역시 북구 화명대로 47 (화명동) ,35.2352,129.013,3.2,0.1,,
70543,롯데마트화정점,일산팀,유통점,영업,2005-08-12,120.0,100.0,20.0,396.0,96.0,경기도 고양시 덕양구 화중로 66 (화정동) ,37.6329,126.8311,1.0,0.0,,
71828,롯데몰광명점,안산팀,유통점,영업,2025-08-29,288.0,272.0,16.0,1165.5,266.0,경기도 광명시 일직로 17 (일직동) ,37.4243,126.8828,8.7,0.6,,
71598,롯데몰군산점,전북팀,유통점,영업,2018-04-27,150.0,130.0,20.0,672.7,124.0,전라북도 군산시 조촌로 130 (조촌동) ,35.9764,126.7391,6.5,0.4,,
71529,롯데몰은평점,신촌팀,유통점,영업,2016-12-01,258.0,238.0,20.0,1728.0,232.0,서울특별시 은평구 통일로 1050 (진관동) ,37.6375,126.9179,17.3,1.2,,
71617,롯데빅마켓영등포점,신촌팀,유통점,영업,2018-09-11,100.0,90.0,10.0,330.0,86.0,서울특별시 영등포구 영중로 125 (영등포동8가) ,37.5278,126.9047,6.0,0.3,,
70969,롯데슈퍼가락점,강남팀,유통점,영업,2010-05-19,36.0,34.0,2.0,0.0,30.0,서울특별시 송파구 오금로36길 8 (가락동) ,37.5031,127.1253,1.3,0.0,,
71806,롯데슈퍼경주동천점,울산팀,유통점,영업,2024-12-21,78.1,78.1,0.0,0.0,74.1,경상북도 경주시 동천로 70 (동천동) ,35.854,129.227,0.7,0.0,,
71446,롯데슈퍼고양삼송점,일산팀,유통행사,영업,2014-01-23,20.0,20.0,0.0,0.0,0.0,경기도 고양시 덕양구 신원로 40-16 ,37.6647,126.8899,0.0,0.0,,
71467,롯데슈퍼고양원흥점,일산팀,유통행사,영업,2024-11-06,30.0,30.0,0.0,0.0,26.0,경기도 고양시 덕양구 도래울2로 3 (도내동) ,37.6303,126.87,0.0,0.0,,
71812,롯데슈퍼광주점,용인팀,유통행사,영업,2025-02-20,50.0,50.0,0.0,0.0,46.0,경기도 광주시 태봉로 51 (태전동) ,37.3888,127.2297,0.7,0.0,,
71833,롯데슈퍼김해율하2호점,서부산팀,유통행사,영업,2025-10-23,45.0,45.0,0.0,0.0,41.0,경남 김해시 율하숲길 7 1층,35.1703,128.823,0.0,0.0,,
71267,롯데슈퍼남양주진접점,구리팀,유통행사,영업,2024-06-13,36.0,36.0,0.0,0.0,32.0,경기 남양주시 진접읍 광릉내로 17-1 613-1,37.7424,127.1984,1.0,0.0,,
71762,롯데슈퍼대림점,신촌팀,유통행사,영업,2023-08-28,27.5,27.5,0.0,0.0,23.5,서울특별시 영등포구 대림로 251 (대림동) ,37.503,126.896,0.0,0.0,,
70715,롯데슈퍼두암점,전남팀,유통행사,영업,2007-08-18,55.8,51.8,4.0,0.0,47.8,광주광역시 북구 삼정로3번길 21 ,35.1625,126.935,0.4,0.1,,
70883,롯데슈퍼마포대흥점,신촌팀,유통행사,영업,2010-05-15,13.1,12.1,1.0,0.0,8.1,서울특별시 마포구 큰우물로 3 ,37.5454,126.9402,0.0,0.0,,
71391,롯데슈퍼망포역점,수원팀,유통행사,영업,2013-01-10,24.0,24.0,0.0,0.0,20.0,경기도 수원시 영통구 영통로 195 ,37.2452,127.0558,0.0,0.0,,
70696,롯데슈퍼문흥점,전남팀,유통점,영업,2007-05-16,37.0,37.0,0.0,0.0,33.0,광주광역시 북구 대천로 140-7 (문흥동) ,35.1866,126.922,1.7,0.0,,
70757,롯데슈퍼방학점,강북팀,유통행사,영업,2010-09-09,44.0,37.0,7.0,0.0,33.0,서울특별시 도봉구 방학로 223 ,37.6613,127.0275,0.0,0.0,,
70428,롯데슈퍼범서점,신촌팀,유통점,영업,2004-09-16,78.0,73.3,4.7,0.0,69.3,서울특별시 은평구 통일로 842 (불광동) ,37.6187,126.9221,4.7,0.0,,
71772,롯데슈퍼보령점,대전팀,유통점,영업,2023-12-23,84.0,84.0,0.0,0.0,80.0,충청남도 보령시 지장골길 118 (죽정동) ,36.3604,126.6011,1.0,0.0,,
71193,롯데슈퍼분당서현점,강동팀,유통행사,영업,2011-02-10,21.0,21.0,0.0,0.0,17.0,경기도 성남시 분당구 중앙공원로40번길 42 우성종합상가 제49동 지하층2호 ,37.3782,127.1324,0.0,0.0,,
70711,롯데슈퍼삼천점,전북팀,유통행사,영업,2024-09-29,54.0,50.0,4.0,0.0,46.0,전북특별자치도 전주시 완산구 용리로 46 (삼천동1가) 285-5,35.7983,127.1151,0.7,0.0,,
70695,롯데슈퍼삼호한마음점,전남팀,유통행사,영업,2007-05-16,14.0,14.0,0.0,0.0,0.0,전라남도 영암군 삼호읍 신항로 63-12 삼호한마음회관 ,34.7451,126.3797,1.0,0.0,,
70755,롯데슈퍼상계11점,강북팀,유통행사,영업,2010-04-23,25.0,25.0,0.0,0.0,21.0,서울특별시 노원구 동일로 1541 11단지종합상가 ,37.6657,127.0571,1.3,0.0,,
70900,롯데슈퍼상남점,창원팀,유통행사,영업,2008-12-23,63.0,54.0,9.0,0.0,50.0,경상남도 창원시 성산구 동산로 122 ,35.219,128.691,1.7,0.0,,
70726,롯데슈퍼수성점,대구팀,유통점,영업,2007-10-17,97.0,94.5,2.5,0.0,90.5,대구광역시 수성구 수성로 227 (중동) ,35.8458,128.6117,2.4,0.0,,
71744,롯데슈퍼신부점,충남팀,유통점,영업,2023-01-21,153.7,145.7,8.0,507.21,139.7,충청남도 천안시 동남구 신부7길 5-1(신부동) ,36.8155,127.1586,4.2,0.1,,
70233,롯데슈퍼신현점(레),북인천팀,유통점,영업,2003-05-30,24.0,24.0,0.0,0.0,20.0,인천광역시 서구 염곡로 351 (신현동) ,37.516,126.668,0.0,0.0,,
70304,롯데슈퍼안양점(레),관악팀,유통점,영업,2004-01-01,98.6,98.6,0.0,325.0,94.6,경기도 안양시 만안구 안양로329번길 108 (안양동) ,37.4013,126.9131,2.7,0.0,,
70869,롯데슈퍼언남점,용인팀,유통행사,영업,2008-10-31,53.6,51.6,2.0,0.0,47.6,경기도 용인시 기흥구 구성로 118 ,37.2926,127.1215,1.0,0.0,,
70631,롯데슈퍼연산점,동부산팀,유통점,영업,2006-10-21,52.0,50.0,2.0,0.0,46.0,부산광역시 연제구 과정로 115 (연산동) ,35.1819,129.1068,0.7,0.0,,
70280,롯데슈퍼연수점,남인천팀,유통점,영업,2005-04-28,92.0,82.0,10.0,303.0,78.0,인천광역시 연수구 앵고개로 266 (동춘동) ,37.407,126.6728,1.7,0.0,,
71710,롯데슈퍼올림픽점,강남팀,유통점,영업,2021-05-15,28.0,28.0,0.0,0.0,24.0,서울특별시 송파구 양재대로 1220 (방이동) ,37.5153,127.1333,1.0,0.0,,
70521,롯데슈퍼용인점,용인팀,유통행사,영업,2005-04-21,20.0,19.0,1.0,0.0,15.0,경기도 용인시 처인구 백옥대로 1066 ,37.2306,127.2105,0.0,0.0,,
70053,롯데슈퍼원주점,춘천원주팀,유통점,영업,2001-02-24,112.0,112.0,0.0,0.0,108.0,강원도 원주시 치악로 1781 (개운동) ,37.3414,127.9549,1.0,0.0,,
70734,롯데슈퍼월성점,대구팀,유통행사,영업,2007-11-09,42.0,40.0,2.0,0.0,36.0,대구광역시 달서구 월성로 14 ,35.8316,128.5344,1.0,0.0,,
71045,롯데슈퍼장위점,종로팀,유통행사,영업,2010-01-28,19.0,19.0,0.0,0.0,15.0,"서울특별시 성북구 월계로40길 7 지하1층 101, 102호 ",37.623,127.0483,0.3,0.0,,
70250,롯데슈퍼정자점,수원팀,유통점,영업,2021-07-30,32.0,30.0,2.0,0.0,26.0,경기도 수원시 장안구 정자천로 187(정자동) ,37.2966,126.9955,0.0,0.0,,
70474,롯데슈퍼제천장락점,충북팀,유통점,영업,2005-01-27,60.0,60.0,0.0,0.0,56.0,충청북도 제천시 청전대로 231 (장락동) ,37.152,128.2238,1.3,0.0,,
71748,롯데슈퍼중촌점,대전팀,유통점,영업,2023-04-22,56.0,50.0,6.0,0.0,46.0,대전광역시 중구 목중로 50 (중촌동) ,36.3378,127.4096,0.7,0.0,,
71322,롯데슈퍼천안두정2호점,충남팀,유통행사,영업,2012-04-14,80.0,80.0,0.0,0.0,76.0,충청남도 천안시 서북구 오성로 9 ,36.8307,127.1284,2.7,0.0,,
71788,롯데슈퍼첨단점,전남팀,유통점,영업,2024-08-29,85.2,73.2,12.0,0.0,69.2,광주 광산구 첨단중앙로182번길 8 ,35.2212,126.842,0.8,0.1,,
71250,롯데슈퍼칠곡중리점,경북팀,유통행사,영업,2025-06-04,52.8,52.8,0.0,0.0,48.8,경상북도 칠곡군 석적읍 유학로 24 142-1,36.0787,128.4124,0.0,0.0,,
70348,롯데슈퍼탑동점,수원팀,유통점,영업,2004-03-20,40.0,40.0,0.0,0.0,36.0,경기도 수원시 권선구 금호로 248 (탑동) ,37.2754,126.9774,0.0,0.0,,
71659,롯데슈퍼태백점,강릉속초팀,유통점,영업,2019-07-12,45.0,45.0,0.0,0.0,41.0,강원도 태백시 번영로 144 (황지동) ,37.1563,128.987,0.0,0.0,,
71040,롯데슈퍼평택점,평택팀,유통행사,영업,2023-04-27,29.3,29.3,0.0,0.0,25.3,경기도 평택시 중앙로 168 (합정동) 763-25,36.9916,127.1015,0.3,0.0,,
71782,롯데슈퍼프리미엄황금점,대구팀,유통점,영업,2024-05-23,52.9,50.2,2.7,0.0,46.2,"대구광역시 수성구 청수로 235 (황금동, 캐슬골드파크 2단지) ",35.8414,128.6334,0.7,0.0,,
70697,롯데슈퍼하당점,전남팀,유통행사,영업,2024-12-29,52.0,46.0,6.0,0.0,42.0,전라남도 목포시 비파로43번길 37 (상동) 980-1,34.8006,126.4233,0.0,0.0,,
71457,롯데슈퍼함박점,남인천팀,유통행사,영업,2014-06-12,30.0,30.0,0.0,0.0,26.0,인천광역시 연수구 비류대로433번길 11 (연수동) ,37.425,126.6826,1.0,0.0,,
71318,롯데슈퍼화성봉담점,평택팀,유통행사,영업,2023-10-19,20.5,20.5,0.0,0.0,16.5,경기도 화성시 봉담읍 샘마을길 39 ,37.2175,126.9514,0.0,0.0,,
70776,롯데슈퍼효자점,전북팀,유통행사,영업,2009-07-24,27.0,25.0,2.0,0.0,21.0,전라북도 전주시 완산구 효동2길 8 ,35.8054,127.1265,0.0,0.0,,
71516,롯데피트인산본점,안산팀,유통점,영업,2016-05-02,286.0,269.0,17.0,944.0,263.0,경기도 군포시 번영로 485 (산본동) ,37.3578,126.9307,22.6,1.6,,
71511,리치식자재마트광주오포점,용인팀,유통점,영업,2016-03-04,110.0,103.0,7.0,363.0,99.0,경기도 광주시 오포읍 오포로 143 ,37.3453,127.1815,4.7,0.0,,
11210,마곡나루역점,일산팀,직영점,영업,2025-11-28,504.0,467.0,37.0,0.0,459.0,서울특별시 강서구 마곡중앙로 143 (마곡동) ,37.5648,126.8253,18.4,1.1,23795607.14285714,476.0
10551,마리오아울렛점,관악팀,직영점,영업,2014-10-03,300.0,285.0,15.0,1056.0,277.0,서울특별시 금천구 벚꽃로 266 (가산동) ,37.4785,126.8852,10.2,0.8,10352089.285714284,207.0
11021,마산삼계점,창원팀,직영점,영업,2022-07-15,301.0,270.0,31.0,997.5,248.0,경상남도 창원시 마산회원구 내서읍 중리공단로 13 ,35.233,128.5059,11.6,0.5,13929839.285714284,279.0
10738,마산양덕점,창원팀,직영점,영업,2017-12-16,321.0,301.0,20.0,1511.0,286.0,경상남도 창원시 마산회원구 용마로 126 (양덕동) ,35.2233,128.5858,12.2,0.8,13872392.857142856,277.0
10666,마산합성점,창원팀,직영점,영업,2017-03-23,457.0,437.0,20.0,1753.0,401.0,경상남도 창원시 마산회원구 3·15대로 730 (합성동) ,35.2371,128.582,15.6,0.8,17454517.85714286,349.0
10964,마산회원점,창원팀,직영점,영업,2021-06-10,248.0,236.0,12.0,872.76,223.0,"경남 창원시 마산회원구 북성로 155 (회원동, 민족사관) ",35.2212,128.5706,7.2,0.5,9152875.0,183.0
10963,마석역점,구리팀,직영점,영업,2021-05-15,146.0,130.0,16.0,492.0,126.0,경기 남양주시 화도읍 마석중앙로 88-1 (마석우리) ,37.6519,127.3099,8.3,0.6,7922357.142857143,158.0
10451,망우2호점,구리팀,직영점,영업,2012-10-25,350.0,332.0,18.0,1157.0,312.0,서울특별시 중랑구 망우로 416 (망우동) ,37.5992,127.0984,15.9,1.1,18623285.714285713,372.0
10803,매봉역점,강남팀,직영점,영업,2018-04-17,272.0,252.0,20.0,662.0,246.0,서울 강남구 남부순환로 2748 ,37.4866,127.0472,10.3,1.3,13875232.142857144,278.0
10366,먹골역점,구리팀,직영점,영업,2011-11-15,100.0,97.0,3.0,242.0,88.0,서울특별시 중랑구 동일로 889 (묵동) ,37.6098,127.0776,8.7,0.6,10631285.714285716,213.0
71630,메가마트기장점,동부산팀,유통점,영업,2019-01-30,66.0,56.0,10.0,216.0,52.0,부산 기장군 일광면 기장대로 673 ,35.2547,129.2219,1.0,0.0,,
71663,메가마트김해점,서부산팀,유통점,영업,2019-07-31,135.0,127.8,7.2,446.0,123.8,경상남도 김해시 김해대로2492번길 20 (삼정동) ,35.2264,128.9009,2.0,0.0,,
71668,메가마트동래점,동부산팀,유통점,영업,2019-09-06,99.0,99.0,0.0,245.0,95.0,부산광역시 동래구 충렬대로 197 (명륜동) ,35.2046,129.0812,5.8,0.0,,
71655,메가마트언양점,울산팀,유통점,영업,2019-06-28,72.8,67.6,5.2,240.0,63.6,울산광역시 울주군 삼남면 반구대로 612 ,35.5464,129.1176,1.4,0.0,,
10528,명동본점,종로팀,직영점,영업,2013-10-31,184.0,184.0,0.0,801.0,173.0,서울특별시 중구 명동길 43 (명동1가) ,37.564,126.9847,20.6,1.9,45544339.28571428,911.0
11043,명동역점,종로팀,직영점,영업,2023-02-28,757.0,554.0,203.0,2736.32,462.0,서울특별시 중구 퇴계로 134-1(남산동3가) ,37.5607,126.9867,48.0,5.6,99703357.14285716,1994.0
11195,모다아울렛구리남양주점,구리팀,직영점,영업,2025-09-19,823.0,696.0,127.0,2721.0,688.0,경기도 구리시 경춘북로 230 (갈매동) ,37.6333,127.1159,16.9,1.1,17845446.42857143,357.0
11087,목동깨비시장점,신촌팀,직영점,영업,2023-12-30,329.0,273.0,56.0,1160.8,265.0,서울특별시 양천구 목동중앙북로4길 6 (목동) ,37.5484,126.8643,13.4,0.6,16624071.42857143,332.0
10140,목동역점,신촌팀,직영점,영업,2008-10-27,110.0,100.0,10.0,344.67,89.0,"서울특별시 양천구 오목로 238 (신정동, 론드사옥) ",37.5259,126.8639,6.6,0.6,7967660.714285715,159.0
10084,목련시장점,대구팀,직영점,영업,2007-05-19,250.0,225.0,25.0,798.0,205.0,대구광역시 수성구 용학로 212 (지산동) ,35.8213,128.6314,6.6,0.5,8374857.142857143,167.0
10371,목포광장점,전남팀,직영점,영업,2011-11-22,150.0,140.0,10.0,713.0,127.0,전라남도 목포시 영산로 243 (용당동) ,34.803,126.393,6.6,0.5,6277160.714285715,126.0
10813,목포본점,전남팀,직영점,영업,2018-08-22,431.0,387.0,44.0,1774.35,365.0,전라남도 목포시 석현로 2 (석현동) ,34.8155,126.4216,15.4,1.1,17412410.714285713,348.0
11025,목포상동점,전남팀,직영점,영업,2022-08-31,304.0,237.0,67.0,1561.91,222.0,전남 목포시 통일대로 42 (상동) ,34.7986,126.4294,9.6,0.8,9015160.714285716,180.0
10957,목포연산점,전남팀,직영점,영업,2021-04-15,286.0,248.0,38.0,945.0,235.0,전라남도 목포시 연산로 135 (연산동) ,34.8092,126.3815,9.9,0.8,11017232.142857144,220.0
10697,목포옥암점,전남팀,직영점,영업,2017-07-28,326.0,298.0,28.0,1674.0,276.0,전라남도 목포시 후광대로 128 (옥암동) ,34.8117,126.4467,9.0,0.5,8772857.142857144,175.0
10338,목포하당점,전남팀,직영점,영업,2011-06-30,205.0,175.0,30.0,678.36,155.0,전라남도 목포시 비파로51번길 30 (상동) ,34.802,126.4238,9.6,0.8,8146892.857142857,163.0
11057,무안남악점,전남팀,직영점,영업,2023-05-24,347.0,293.0,54.0,1439.01,278.0,전라남도 무안군 삼향읍 남악로 234 ,34.8051,126.4643,11.7,0.8,14511035.714285716,290.0
10886,문경모전점,경북팀,직영점,영업,2019-04-12,314.0,289.0,25.0,996.62,267.0,경상북도 문경시 당교로 258 (모전동) ,36.5862,128.1913,7.5,0.5,13300357.142857144,266.0
11110,문정역점,강남팀,직영점,영업,2024-06-14,259.0,228.0,31.0,1245.46,222.0,"서울특별시 송파구 문정로 1 (문정동, 문정역 마에스트로) ",37.4864,127.1231,8.6,0.6,11190428.57142857,224.0
10627,미아사거리점,강북팀,직영점,영업,2017-02-03,409.0,380.0,29.0,1512.0,360.0,서울특별시 강북구 월계로 3 (미아동) ,37.6096,127.0307,18.8,1.1,18820250.0,376.0
11104,미아역점,강북팀,직영점,영업,2024-04-20,360.0,286.0,74.0,1295.63,264.0,서울특별시 강북구 도봉로 147 (미아동) ,37.622,127.0275,8.5,0.8,10907375.0,218.0
11100,밀양상남점,서부산팀,직영점,영업,2024-03-29,306.0,261.0,45.0,998.5,246.0,경상남도 밀양시 상남면 밀양대로 1460-7 ,35.4631,128.7559,8.9,0.5,10165839.285714284,203.0
10679,밀양점,서부산팀,직영점,영업,2017-05-12,305.0,275.0,30.0,996.0,260.0,경상남도 밀양시 밀양대로 1883 (내이동) ,35.4917,128.7448,10.9,0.8,12934642.857142856,259.0
71556,바다마트강서점,일산팀,유통점,영업,2017-06-24,100.0,90.0,10.0,330.0,86.0,서울특별시 강서구 발산로 24 (외발산동) ,37.5536,126.8192,1.0,0.0,,
71561,바다마트신내점,구리팀,유통행사,영업,2017-06-30,32.0,32.0,0.0,0.0,28.0,"서울특별시 중랑구 신내로14길 21 (신내동, 동성7차아파트) ",37.6061,127.0971,0.7,0.0,,
71725,바로이마트송탄점,평택팀,유통점,영업,2022-04-09,112.0,110.0,2.0,370.0,106.0,경기 평택시 탄현로 391 (독곡동) ,37.0866,127.0591,3.0,0.0,,
10592,발산역점,일산팀,직영점,영업,2015-12-21,290.38,261.24,29.14,992.74,241.24,서울특별시 강서구 공항대로 280 (내발산동) ,37.558,126.8384,19.0,1.1,22210553.57142857,444.0
10344,방배역점,강남팀,직영점,영업,2011-07-20,90.0,84.0,6.0,327.0,80.0,서울특별시 서초구 효령로 117 (방배동) ,37.4815,126.9969,5.3,0.3,5174607.142857143,103.0
10508,방이시장점,강남팀,직영점,영업,2013-06-20,136.0,124.0,12.0,729.0,106.0,서울특별시 송파구 백제고분로48길 5 (방이동) ,37.5118,127.114,8.5,0.8,9748285.714285716,195.0
10590,방학역점,강북팀,직영점,영업,2015-11-26,156.0,143.0,13.0,462.0,130.0,서울특별시 도봉구 도봉로 696 (방학동) ,37.6666,127.0434,13.2,1.1,15593589.285714284,312.0
10755,배곧신도시점,안산팀,직영점,영업,2018-03-01,246.0,226.0,20.0,1400.0,213.0,경기도 시흥시 배곧4로 87 (정왕동) ,37.3746,126.7334,9.2,0.8,10416875.0,208.0
11028,범계역점,관악팀,직영점,영업,2022-11-10,152.0,136.0,16.0,1031.8,130.0,경기도 안양시 동안구 동안로 120(호계동) ,37.3896,126.9522,15.0,0.8,16404910.714285716,328.0
10637,별내본점,구리팀,직영점,영업,2016-10-25,206.0,196.0,10.0,925.23,176.0,경기도 남양주시 순화궁로 357 (별내동) ,37.6586,127.1248,9.7,0.6,10968375.0,219.0
10615,보라매점,관악팀,직영점,영업,2016-06-27,300.0,280.0,20.0,1770.0,269.0,"서울특별시 동작구 보라매로5가길 16 (신대방동, 보라매아카데미타워) ",37.4913,126.9241,13.9,1.2,15380446.42857143,308.0
10468,봉천2호점,관악팀,직영점,영업,2012-11-25,127.0,122.0,5.0,540.0,106.0,서울특별시 관악구 남부순환로 1731 (봉천동) ,37.4826,126.9425,9.5,0.8,12408553.57142857,248.0
10960,봉천본점,관악팀,직영점,영업,2021-04-30,382.0,357.0,25.0,2407.5,349.0,"서울특별시 관악구 관악로 195 (봉천동, 관악위버폴리스) ",37.4826,126.9531,18.2,0.8,24235964.285714287,485.0
10910,부산개금점,서부산팀,직영점,영업,2019-08-11,362.0,309.0,53.0,998.12,287.0,부산광역시 부산진구 가야대로 477 (개금동) ,35.1535,129.0244,12.6,0.8,17197625.0,344.0
10961,부산거제시장점,동부산팀,직영점,영업,2021-04-23,199.0,174.0,25.0,621.85,168.0,"부산광역시 연제구 거제시장로14번길 43 (거제동, 동성상가) ",35.1826,129.0727,6.4,0.3,8444053.57142857,169.0
10608,부산경성대점,서부산팀,직영점,영업,2016-04-29,180.0,160.0,20.0,1329.0,147.0,부산광역시 남구 수영로 306 (대연동) ,35.1369,129.0998,14.3,0.8,21519678.57142857,430.0
10953,부산괴정점,서부산팀,직영점,영업,2021-02-19,324.0,289.0,35.0,998.0,253.0,부산광역시 사하구 낙동대로 229 (괴정동) ,35.0994,128.9919,13.3,0.8,17143267.85714286,343.0
11068,부산교대점,동부산팀,직영점,영업,2023-08-31,316.0,294.0,22.0,998.92,245.0,부산광역시 연제구 중앙대로 1178 (거제동) ,35.1927,129.0803,7.2,0.5,9299410.714285716,186.0
10603,부산구서점,동부산팀,직영점,영업,2016-03-30,170.0,159.0,11.0,595.0,148.0,부산광역시 금정구 구서로 8 (구서동) ,35.2468,129.0904,7.5,0.4,9113839.285714284,182.0
10643,부산국제시장점,서부산팀,직영점,영업,2016-10-06,189.0,170.0,19.0,782.0,166.0,부산광역시 중구 중구로 13 (부평동1가) ,35.099,129.0274,15.1,0.5,21780196.42857143,436.0
10988,부산금정점,동부산팀,직영점,영업,2021-12-04,156.0,146.0,10.0,525.3,140.0,부산광역시 금정구 중앙대로 1879(구서동) ,35.2521,129.091,4.7,0.3,5026410.714285715,101.0
10826,부산기장본점,동부산팀,직영점,영업,2019-03-16,562.0,517.0,45.0,2360.7,502.0,부산광역시 기장군 기장읍 차성동로 63 ,35.2434,129.2162,13.9,1.1,17585910.714285713,352.0
11129,부산남산점,동부산팀,직영점,영업,2024-07-27,288.98,255.03,33.95,1577.3,249.03,부산광역시 금정구 중앙대로 1989 (남산동) ,35.2621,129.0913,8.3,0.5,11368107.142857144,227.0
10544,부산남포점,서부산팀,직영점,영업,2014-07-05,290.3,273.4,16.9,1001.0,239.4,부산광역시 중구 구덕로 46 (남포동4가) ,35.0985,129.0309,14.1,0.8,21824196.42857143,436.0
11233,부산다대2호점,서부산팀,직영점,영업,2026-03-12,323.79,296.0,27.79,0.0,288.0,부산 사하구 다송로72번길 50 ,35.0609,128.9818,10.0,0.5,14032553.57142857,281.0
10956,부산다대점,서부산팀,직영점,영업,2021-03-31,359.0,315.0,44.0,1976.0,293.0,부산광역시 사하구 윤공단로 4 (다대동) ,35.0548,128.9702,10.5,0.4,12130035.714285716,243.0
10934,부산대연점,서부산팀,직영점,영업,2020-07-10,216.0,178.0,38.0,837.32,165.0,부산광역시 남구 수영로 184 (대연동) ,35.1346,129.0867,8.2,0.4,11683232.142857144,234.0
10552,부산대점,동부산팀,직영점,영업,2014-10-15,390.0,284.0,106.0,1564.0,255.0,부산광역시 금정구 장전온천천로 55 (장전동) ,35.2299,129.0889,17.4,0.8,21711375.0,434.0
10401,부산덕천점,동부산팀,직영점,영업,2012-03-31,270.0,230.0,40.0,1473.0,219.0,부산광역시 북구 백양대로 1200 (덕천동) ,35.2094,129.0058,15.4,0.5,17562910.714285713,351.0
11231,부산덕포점,서부산팀,직영점,영업,2026-02-27,317.93,254.0,63.93,0.0,232.0,부산광역시 사상구 사상로 313 (덕포동) ,35.1729,128.9834,9.3,0.5,12885553.57142857,258.0
10821,부산동래역점,동부산팀,직영점,영업,2018-09-18,390.0,360.0,30.0,1293.35,338.0,부산광역시 동래구 중앙대로 1295 (온천동) ,35.2027,129.0775,12.6,0.5,15367589.285714284,307.0
10313,부산동아대점,서부산팀,직영점,영업,2011-05-01,113.0,93.0,20.0,702.0,82.0,부산광역시 사하구 낙동대로516번길 56 (하단동) ,35.1135,128.9662,4.5,0.1,4503285.714285715,90.0
10885,부산만덕점,동부산팀,직영점,영업,2019-03-31,230.0,215.0,15.0,852.15,181.0,부산광역시 북구 덕천로 275 (만덕동) ,35.2098,129.0341,5.9,0.5,6495125.0,130.0
10759,부산명지국제신도시점,서부산팀,직영점,영업,2019-01-30,344.0,314.0,30.0,1136.93,292.0,부산광역시 강서구 명지국제8로 237 (명지동) ,35.0985,128.9189,10.3,0.5,15809178.57142857,316.0
10760,부산명지오션시티점,서부산팀,직영점,영업,2019-02-28,440.0,390.0,50.0,1137.0,354.0,부산광역시 강서구 명지오션시티4로 87 (명지동) ,35.0812,128.9039,11.3,0.5,15152607.142857144,303.0
10496,부산문현점,서부산팀,직영점,영업,2013-04-27,210.0,200.0,10.0,661.0,196.0,부산광역시 남구 수영로 45 (문현동) ,35.1367,129.0729,7.6,0.5,10447250.0,209.0
10989,부산반송점,동부산팀,직영점,영업,2021-12-24,208.0,180.0,28.0,702.9,174.0,부산광역시 해운대구 반송로 824(반송동) ,35.2268,129.1467,7.1,0.3,8998589.285714285,180.0
10629,부산반여본점,동부산팀,직영점,영업,2016-08-19,320.0,280.0,40.0,1244.0,262.0,부산광역시 해운대구 선수촌로 136 (반여동) ,35.2054,129.1213,9.6,0.5,11404517.857142856,228.0
11059,부산범천점,서부산팀,직영점,영업,2023-07-21,262.0,217.0,45.0,885.6,197.0,부산광역시 부산진구 범일로 163 (범천동) ,35.1448,129.059,5.6,0.5,8864446.42857143,177.0
10932,부산서동역점,동부산팀,직영점,영업,2020-04-30,312.0,297.0,15.0,987.0,268.0,부산광역시 금정구 반송로 400 (서동) ,35.2135,129.1082,6.6,0.5,8155589.285714285,163.0
10652,부산서면2호점,서부산팀,직영점,영업,2017-01-13,367.0,330.0,37.0,1061.0,301.0,부산광역시 부산진구 중앙대로 693 (부전동) ,35.1548,129.0589,15.4,0.8,26344232.14285714,527.0
10440,부산서면점,서부산팀,직영점,영업,2012-09-26,370.0,302.0,68.0,1024.0,294.0,부산광역시 부산진구 중앙대로702번길 43 (부전동) ,35.1557,129.0615,16.7,0.8,23264285.714285713,465.0
10958,부산센텀시티점,동부산팀,직영점,영업,2021-04-09,261.0,229.0,32.0,1525.0,216.0,부산광역시 해운대구 센텀5로 55 (우동) ,35.173,129.1316,4.0,0.3,7843089.285714285,157.0
11208,부산송도점,서부산팀,직영점,영업,2025-11-21,511.05,387.0,124.05,0.0,365.0,"부산광역시 서구 송도해변로 192 (암남동, 송도힐스테이트이진베이시티아파트) ",35.0788,129.0229,8.8,0.3,10446732.142857144,209.0
10534,부산수영점,동부산팀,직영점,영업,2013-12-27,228.0,217.0,11.0,770.0,197.0,부산광역시 수영구 연수로 411 (수영동) ,35.1682,129.1143,14.5,0.9,19260196.42857143,385.0
11149,부산신세계프리미엄아울렛점,동부산팀,직영점,영업,2024-11-30,400.0,349.0,51.0,1322.3,341.0,부산광역시 기장군 장안읍 정관로 1133 ,35.3249,129.2361,7.8,0.6,8833839.285714285,177.0
11014,부산안락교차로점,동부산팀,직영점,영업,2022-05-27,279.0,238.0,41.0,963.73,218.0,부산광역시 동래구 충렬대로 355(안락동) ,35.1984,129.0979,11.0,0.5,13930821.42857143,279.0
11000,부산애플아울렛점,서부산팀,직영점,영업,2022-02-23,212.0,157.0,55.0,679.03,151.0,부산광역시 사상구 사상로 201(괘법동) 서부시외버스터미널 별관B동3층,35.1631,128.981,9.9,0.5,12950428.57142857,259.0
10321,부산양정점,서부산팀,직영점,영업,2011-05-27,366.0,318.0,48.0,1584.0,296.0,부산광역시 부산진구 중앙대로 904 (양정동) ,35.1708,129.07,10.6,0.8,13724464.285714284,274.0
10723,부산연산교차로점,동부산팀,직영점,영업,2017-10-25,214.0,198.0,16.0,890.0,192.0,부산광역시 연제구 중앙대로 1119 (연산동) ,35.1875,129.0809,7.9,0.5,11083517.857142856,222.0
10790,부산연산본점,동부산팀,직영점,영업,2018-08-03,400.0,380.0,20.0,1330.0,358.0,부산광역시 연제구 과정로 356 (연산동) ,35.1918,129.0901,9.3,0.5,11679446.42857143,234.0
10935,부산연산토곡2호점,동부산팀,직영점,영업,2020-06-26,290.0,272.0,18.0,973.85,259.0,부산광역시 연제구 과정로 157 (연산동) ,35.1854,129.1067,7.9,0.5,11232232.142857144,225.0
10591,부산연제점,동부산팀,직영점,영업,2015-12-22,416.0,357.0,59.0,2728.0,344.0,"부산광역시 연제구 연수로 110 (연산동, 연산 경동메르빌아파트) ",35.1748,129.0826,12.0,0.5,14857125.0,297.0
10515,부산영도동삼점,서부산팀,직영점,영업,2013-07-30,145.0,145.0,0.0,411.0,134.0,부산광역시 영도구 동삼로 23 (동삼동) ,35.0759,129.0719,6.6,0.5,7823857.142857143,156.0
10630,부산용호점,서부산팀,직영점,영업,2016-10-21,380.0,360.0,20.0,1725.0,345.0,부산광역시 남구 용호로 133 (용호동) ,35.1204,129.1124,12.7,0.5,15210071.42857143,304.0
11157,부산일광신도시점,동부산팀,직영점,영업,2025-01-10,307.0,255.0,52.0,999.42,240.0,부산광역시 기장군 일광읍 해빛1로 95 ,35.2583,129.2224,5.3,0.5,9019071.42857143,180.0
11227,부산정관신도시2호점,동부산팀,직영점,영업,2026-02-12,333.83,248.0,85.83,0.0,226.0,부산광역시 기장군 정관읍 모전로 101 ,35.3345,129.1707,5.7,0.5,7737660.714285715,155.0
10677,부산정관신도시점,동부산팀,직영점,영업,2017-04-07,324.0,304.0,20.0,1726.0,282.0,부산광역시 기장군 정관읍 정관7로 34 ,35.3218,129.1786,12.8,0.8,13510089.285714284,270.0
10699,부산종합운동장점,동부산팀,직영점,영업,2017-06-17,311.0,294.0,17.0,996.0,258.0,부산광역시 연제구 아시아드대로 81 (거제동) ,35.1918,129.0669,12.0,0.5,14657714.285714284,293.0
10761,부산주례역점,서부산팀,직영점,영업,2018-03-09,343.0,286.0,57.0,1330.0,250.0,부산광역시 사상구 가야대로 270 (주례동) ,35.1501,129.0021,10.3,0.5,11820946.42857143,236.0
10707,부산주례점,서부산팀,직영점,영업,2017-07-14,431.0,362.0,69.0,1653.0,333.0,"부산광역시 사상구 백양대로 526 (주례동, 경동 리인) ",35.1558,128.996,4.7,0.3,5618375.0,112.0
10900,부산초읍점,서부산팀,직영점,영업,2019-06-19,367.0,300.0,67.0,1161.04,285.0,부산광역시 부산진구 성지로 104 (초읍동) ,35.1797,129.0526,7.9,0.5,9978285.714285716,200.0
10538,부산하단2호점,서부산팀,직영점,영업,2014-02-21,271.0,258.0,13.0,1322.0,247.0,부산광역시 사하구 낙동남로1389번길 1 (하단동) ,35.1066,128.9635,14.3,1.1,18425642.85714286,369.0
10800,부산학장동점,서부산팀,직영점,영업,2018-04-30,310.0,282.0,28.0,1357.0,274.0,부산광역시 사상구 대동로 95 (학장동) ,35.1385,128.9779,7.6,0.5,8823660.714285715,176.0
11152,부산해운대마린시티점,동부산팀,직영점,영업,2024-12-25,800.0,660.0,140.0,4902.98,590.0,"부산광역시 해운대구 마린시티2로 38 (우동, 해운대아이파크) ",35.157,129.1433,14.7,0.8,16571892.857142856,331.0
10719,부산해운대장산본점,동부산팀,직영점,영업,2017-11-24,650.0,600.0,50.0,3597.0,585.0,부산광역시 해운대구 해운대로 785 (좌동) ,35.169,129.1746,23.5,1.8,26407892.85714286,528.0
10502,부산해운대점,동부산팀,직영점,영업,2013-05-24,150.0,150.0,0.0,487.0,132.0,부산광역시 해운대구 구남로 11 (우동) ,35.163,129.1597,10.0,0.3,15326696.42857143,307.0
10685,부산화명2호점,동부산팀,직영점,영업,2017-04-30,337.0,248.0,89.0,1102.0,219.0,부산광역시 북구 금곡대로 208 (화명동) ,35.227,129.0117,8.9,0.5,10401392.857142856,208.0
10316,부산화명점,동부산팀,직영점,영업,2011-05-14,260.0,245.0,15.0,1104.0,225.0,부산광역시 북구 금곡대로 358 (화명동) ,35.2403,129.0145,6.3,0.5,6973160.714285715,139.0
10693,부천범박동점,북인천팀,직영점,영업,2017-08-11,300.0,280.0,20.0,986.0,258.0,경기도 부천시 소사구 양지로 125 (옥길동) ,37.4718,126.8169,10.5,0.8,10199428.57142857,204.0
10547,부천본점,북인천팀,직영점,영업,2014-07-30,259.0,224.0,35.0,987.0,213.0,경기도 부천시 부천로 20 (심곡동) ,37.486,126.7835,14.9,1.1,17540642.85714286,351.0
10715,부천상동역점,북인천팀,직영점,영업,2017-10-31,300.0,280.0,20.0,794.0,265.0,경기도 부천시 상동로 83 (상동) ,37.5048,126.7524,17.3,0.8,22599410.714285713,452.0
10893,부천심곡본동점,북인천팀,직영점,영업,2019-06-29,646.0,569.0,77.0,1453.2,561.0,경기도 부천시 경인로 175 (심곡본동) ,37.4842,126.7749,13.9,0.8,15832160.714285716,317.0
10945,부천원종동점,북인천팀,직영점,영업,2020-09-30,292.0,261.0,31.0,960.0,234.0,경기도 부천시 소사로 776-1 (원종동) ,37.5254,126.8052,14.0,0.9,18482339.285714287,370.0
10284,부천자유시장점,북인천팀,직영점,영업,2011-01-10,97.6,92.6,5.0,421.0,88.6,경기도 부천시 경인로 231 (심곡본동) 1층 1호,37.4835,126.7812,7.9,0.5,8429076.923076924,169.0
10829,부천중동본점,북인천팀,직영점,영업,2018-12-06,487.0,487.0,0.0,2552.59,458.0,경기도 부천시 길주로 267 (중동) ,37.504,126.7725,24.4,1.8,29026178.57142857,581.0
10262,부천중동점,북인천팀,직영점,영업,2010-08-31,190.0,175.0,15.0,665.0,148.0,경기도 부천시 석천로 182 (중동) ,37.5037,126.7632,11.7,0.9,12956071.42857143,259.0
10599,부평2호점,남인천팀,직영점,영업,2016-05-25,415.0,390.0,25.0,1203.0,375.0,인천광역시 부평구 경원대로 1404 (부평동) ,37.4909,126.725,16.9,0.8,19259178.57142857,385.0
10678,부평역남부점,남인천팀,직영점,영업,2017-05-31,304.0,290.0,14.0,985.0,268.0,"인천 부평구 경인로 947 (부평동, 태성메디칼) 지번 : 인천광역시 부평구 부평동 694-14외 3필지",37.4878,126.7249,9.3,0.6,11575196.42857143,232.0
11085,부평중앙점,남인천팀,직영점,영업,2023-12-20,194.0,180.0,14.0,893.44,174.0,인천광역시 부평구 부평대로 21 (부평동) ,37.4933,126.7223,7.9,0.5,9365928.57142857,187.0
11098,북상주점,경북팀,직영점,영업,2024-03-15,305.0,243.0,62.0,1430.64,221.0,경상북도 상주시 북천로 1 (만산동) ,36.4262,128.1519,7.0,0.3,8918500.0,178.0
11218,북수원2호점,수원팀,직영점,영업,2025-12-25,434.0,340.0,94.0,0.0,318.0,경기도 수원시 장안구 경수대로1008번길 4 (송죽동) ,37.3065,127.0018,11.2,0.8,12734303.57142857,255.0
10542,분당미금(역)점,강동팀,직영점,영업,2014-05-30,135.0,130.0,5.0,745.0,121.0,경기도 성남시 분당구 돌마로 79 (금곡동) ,37.3504,127.1108,9.8,0.8,13169892.857142856,263.0
10582,분당서현점,강동팀,직영점,영업,2015-08-21,340.0,300.0,40.0,1973.55,278.0,경기도 성남시 분당구 분당로53번길 11 (서현동) ,37.3841,127.1216,18.5,1.1,24247232.14285714,485.0
10142,분당수내점,강동팀,직영점,영업,2008-11-06,176.0,162.0,14.0,583.0,156.0,"경기도 성남시 분당구 내정로165번길 38 (수내동, 양지마을청구금호아파트) ",37.3766,127.1163,8.8,0.8,12798000.0,256.0
10418,분당야탑점,강동팀,직영점,영업,2012-06-30,439.9,406.1,33.8,1789.0,398.1,경기도 성남시 분당구 성남대로916번길 5 (야탑동) ,37.4115,127.1299,15.1,1.1,21368357.14285714,427.0
11008,분당이매점,강동팀,직영점,영업,2022-05-13,115.0,110.0,5.0,729.65,99.0,경기도 성남시 분당구 판교로 438(이매동) ,37.4052,127.1224,4.3,0.3,4505000.0,90.0
11138,분당효자촌점,강동팀,직영점,영업,2024-10-31,257.0,218.0,39.0,1647.1,212.0,경기도 성남시 분당구 돌마로 478 (서현동) ,37.377,127.1334,6.6,0.6,7420375.0,148.0
10088,불광역점,신촌팀,직영점,영업,2007-06-17,94.3,91.3,3.0,389.0,80.3,서울특별시 은평구 통일로67길 3 (대조동) ,37.6109,126.9288,8.3,0.6,11048107.142857144,221.0
10703,비트플렉스왕십리역점,종로팀,직영점,영업,2017-07-14,394.0,366.0,28.0,1989.2,358.0,서울특별시 성동구 왕십리광장로 17 (행당동) ,37.5614,127.0384,26.8,1.6,34349250.0,687.0
71550,빅마켓광주점,전남팀,유통점,영업,2017-05-30,190.0,171.0,19.0,627.0,165.0,광주광역시 남구 서문대로 745 (주월동) ,35.1258,126.8973,8.7,0.5,,
10594,사가정2호점,구리팀,직영점,영업,2015-12-22,200.0,195.0,5.0,656.0,175.0,서울특별시 중랑구 면목로 290 (면목동) ,37.5786,127.0863,10.0,0.6,13289428.57142857,266.0
10437,사당1호점,관악팀,직영점,영업,2012-08-31,137.0,130.0,7.0,536.6,121.0,서울특별시 동작구 동작대로 43 (사당동) ,37.4804,126.9815,7.8,0.4,8229142.857142857,165.0
10550,사당2호점,관악팀,직영점,영업,2014-09-03,115.0,112.0,3.0,545.0,101.0,서울특별시 동작구 남부순환로 2057 (사당동) ,37.4769,126.9774,7.8,0.4,7742178.571428572,155.0
11069,사천대로점,창원팀,직영점,영업,2023-09-22,300.0,273.0,27.0,1499.48,265.0,경상남도 사천시 사남면 사천대로 1615-9 ,35.0629,128.0745,13.6,0.5,14948892.857142856,299.0
11053,사천평화점,창원팀,직영점,영업,2023-05-02,144.0,134.0,10.0,475.48,123.0,경상남도 사천시 사천읍 평화1길 22 ,35.0821,128.0882,6.2,0.5,7057392.857142857,141.0
10519,삼양시장점,강북팀,직영점,영업,2013-08-20,230.0,216.0,14.0,1025.16,203.0,서울특별시 강북구 삼양로 234 (미아동) ,37.6243,127.0187,6.9,0.5,7668250.0,153.0
11016,삼척점,강릉속초팀,직영점,영업,2022-06-04,99.0,89.0,10.0,354.64,85.0,강원도 삼척시 척주로 10(남양동) ,37.4438,129.1649,6.8,0.8,7357767.857142857,147.0
11214,삼천포점,창원팀,직영점,영업,2025-12-13,155.0,134.0,21.0,0.0,121.0,경상남도 사천시 벌리로 53 (벌리동) ,34.9385,128.0854,9.6,0.5,11411214.285714284,228.0
10254,상계1호점,강북팀,직영점,영업,2010-07-30,92.0,92.0,0.0,317.0,74.0,서울특별시 노원구 한글비석로22길 30-1 (중계동) ,37.6608,127.0739,7.9,0.8,8413875.0,168.0
10416,상계보람점,강북팀,직영점,영업,2012-06-09,130.0,122.0,8.0,499.0,111.0,서울특별시 노원구 한글비석로 470 (상계동) ,37.6647,127.066,7.1,0.4,7240589.285714285,145.0
10526,상도점,관악팀,직영점,영업,2013-10-18,146.0,140.0,6.0,420.0,122.0,서울특별시 동작구 상도로 277 (상도1동) ,37.5028,126.9483,10.3,1.3,12357928.57142857,247.0
10090,상록수역점,안산팀,직영점,영업,2007-07-23,432.0,422.0,10.0,2122.0,395.0,경기도 안산시 상록구 용신로 388 (본오동) ,37.3014,126.8651,20.2,1.8,22177267.85714286,444.0
10503,상봉역점,구리팀,직영점,영업,2013-05-30,150.0,150.0,0.0,643.0,130.0,서울특별시 중랑구 망우로 287 (상봉동) ,37.5963,127.0843,8.6,0.9,7956660.714285715,159.0
71571,상상초월마트광주점,용인팀,유통점,영업,2017-09-19,123.0,120.0,3.0,406.0,116.0,경기도 광주시 초월읍 경충대로 923-2 ,37.3643,127.3106,2.7,0.0,,
10805,상왕십리역점,종로팀,직영점,영업,2018-07-17,300.0,255.0,45.0,1333.0,233.0,서울특별시 성동구 왕십리로 373 (하왕십리동) ,37.5643,127.0286,14.5,0.8,16296785.714285716,326.0
10972,상일동역점,강동팀,직영점,영업,2021-06-19,276.0,257.0,19.0,1913.5,251.0,"서울특별시 강동구 고덕로 399 (고덕동, 고덕센트럴푸르지오) ",37.5574,127.1697,11.7,0.7,16739607.142857144,335.0
10737,상주서문사거리점,경북팀,직영점,영업,2017-11-30,358.0,304.0,54.0,1184.0,275.0,경상북도 상주시 중앙로 185 (서문동) ,36.4158,128.1589,7.4,0.4,9894089.285714284,198.0
11132,서광주점,전남팀,직영점,영업,2024-08-29,326.86,267.86,59.0,997.2,245.86,광주광역시 서구 서광주로 7 (매월동) ,35.1278,126.8466,12.3,0.8,16874535.714285713,337.0
11189,서귀포모슬포점,제주팀,직영점,영업,2025-07-31,318.0,259.0,59.0,997.96,237.0,제주특별자치도 서귀포시 대정읍 일주서로 2624 ,33.2297,126.2499,9.9,0.8,10968732.142857144,219.0
10933,서귀포중문점,제주팀,직영점,영업,2020-05-13,280.0,261.0,19.0,947.03,241.0,제주특별자치도 서귀포시 일주서로 996 (색달동) ,33.2589,126.4045,10.6,1.1,11253375.0,225.0
11108,서귀포혁신도시점,제주팀,직영점,영업,2024-05-24,306.0,261.0,45.0,1146.59,239.0,제주특별자치도 서귀포시 일주동로 9153 (법환동) ,33.2477,126.5149,10.2,1.1,14582410.714285716,292.0
10895,서면지하상가중앙몰점,서부산팀,직영점,영업,2019-06-14,120.0,108.0,12.0,605.59,104.0,부산광역시 부산진구 가야대로 지하 777 (부전동) 서면지하상가 중앙몰 J-17호,35.1576,129.0561,7.5,0.4,11117928.57142857,222.0
71658,서부식자재마트점,신촌팀,유통행사,영업,2019-07-04,50.0,50.0,0.0,0.0,46.0,서울특별시 양천구 목동남로 72 (신정동) ,37.5099,126.8669,1.0,0.0,,
10845,서산대산점,충남팀,직영점,영업,2018-10-20,293.0,283.0,10.0,998.24,270.0,충청남도 서산시 대산읍 충의로 1993 ,36.9413,126.4298,7.0,0.6,7433375.0,149.0
10864,서산동부시장점,충남팀,직영점,영업,2019-02-08,225.0,205.0,20.0,751.54,171.0,충남 서산시 고운로 193 ,36.7838,126.4568,8.3,0.8,9012767.857142856,180.0
10991,서산본점,충남팀,직영점,영업,2022-01-15,498.12,342.89,155.23,1558.1,313.89,충남 서산시 서해로 3374 (석남동) ,36.7691,126.4541,23.4,1.8,27401142.85714286,548.0
10447,서울대입구점,관악팀,직영점,영업,2012-10-15,124.0,120.0,4.0,628.1,111.0,서울특별시 관악구 남부순환로 1840 (봉천동) ,37.4804,126.9543,9.2,0.5,9831375.0,197.0
10856,서울시청광장점,종로팀,직영점,영업,2019-03-14,77.0,73.0,4.0,729.0,62.0,서울특별시 중구 세종대로 93 (태평로2가) ,37.5647,126.9766,6.1,0.4,8201482.142857143,164.0
11105,서울양평동점,신촌팀,직영점,영업,2024-04-26,284.0,191.0,93.0,898.03,164.0,서울특별시 영등포구 선유로 157 (양평동3가) ,37.528,126.891,4.6,0.6,6279000.0,126.0
11015,서울역점,종로팀,직영점,영업,2022-06-02,77.0,72.0,5.0,453.2,68.0,서울특별시 중구 한강대로 405(봉래동2가) ,37.5547,126.9695,7.0,0.0,9086339.285714284,182.0
10654,서청주점,충북팀,직영점,영업,2016-12-24,300.0,291.5,8.5,993.0,276.5,충청북도 청주시 흥덕구 2순환로 1060 (비하동) ,36.64,127.4219,7.3,0.5,7698392.857142857,154.0
10391,석촌점,강남팀,직영점,영업,2012-02-17,204.0,190.0,14.0,994.0,184.0,서울특별시 송파구 가락로 103 (석촌동) ,37.5014,127.1076,12.6,0.9,14432339.285714284,289.0
10633,선릉점,강남팀,직영점,영업,2016-08-26,160.0,148.0,12.0,943.0,139.0,서울특별시 강남구 테헤란로 414 (대치동) ,37.5049,127.0516,8.6,0.6,12465517.857142856,249.0
71596,성경도매마트점,용인팀,유통행사,영업,2018-04-14,53.0,51.0,2.0,0.0,47.0,경기도 광주시 이배재로 7-13 (탄벌동) ,37.4186,127.2456,1.7,0.0,,
10809,성균관대역점,수원팀,직영점,영업,2018-06-12,160.0,150.0,10.0,498.0,144.0,경기도 수원시 장안구 서부로 2149 (율전동) ,37.3002,126.9723,8.9,0.5,10476821.42857143,210.0
10682,성남모란역점,강동팀,직영점,영업,2017-11-25,333.0,302.0,31.0,761.0,280.0,경기도 성남시 중원구 성남대로 1128 (성남동) ,37.4305,127.1299,17.8,1.1,23579428.57142857,472.0
10890,성남신흥역점,강동팀,직영점,영업,2019-05-31,260.0,240.0,20.0,876.04,220.0,경기도 성남시 수정구 산성대로 251 (신흥동) ,37.4404,127.145,10.8,0.8,12593642.857142856,252.0
11086,성남중앙점,강동팀,직영점,영업,2023-12-14,435.0,410.0,25.0,3012.82,402.0,경기도 성남시 수정구 수정로 150 (신흥동) ,37.4421,127.1367,14.5,0.8,16943714.285714287,339.0
10103,성남태평점,강동팀,직영점,영업,2007-11-13,173.8,160.0,13.8,946.38,154.0,경기도 성남시 수정구 수정로 185 (태평동) ,37.4438,127.1405,5.5,0.5,7603428.571428572,152.0
10248,성대시장점,관악팀,직영점,영업,2010-06-30,190.0,183.0,7.0,447.0,170.0,서울특별시 동작구 상도로 102 (상도동) ,37.4999,126.9318,13.0,1.3,15263160.714285716,305.0
71562,성대유통안산점,안산팀,유통점,영업,2017-07-21,334.5,302.7,31.8,1103.0,294.7,경기도 안산시 단원구 라성로 36 (원곡동) ,37.3272,126.8005,11.9,0.5,,
10375,성신여대역점,종로팀,직영점,영업,2011-12-17,126.0,120.0,6.0,649.0,102.0,서울특별시 성북구 동소문로20나길 2 (동선동1가) ,37.5918,127.0168,13.2,0.8,14571035.714285716,291.0
71456,세계로마트야탑점,강동팀,유통행사,영업,2014-05-30,43.0,40.0,3.0,0.0,36.0,경기도 성남시 분당구 벌말로 32 ,37.4108,127.1385,1.0,0.0,,
10758,세마대사거리점,평택팀,직영점,영업,2018-11-15,300.0,280.0,20.0,2686.0,258.0,경기도 오산시 경기대로 845 (세교동) ,37.1925,127.0442,15.5,1.1,16611267.857142856,332.0
70447,세이브마트난곡점,관악팀,유통점,영업,2004-10-28,51.8,50.0,1.8,0.0,46.0,서울특별시 관악구 난곡로 220 (신림동) ,37.4743,126.9181,4.0,0.0,,
70463,세이브존광명점,안산팀,유통행사,영업,2009-01-31,50.0,50.0,0.0,0.0,46.0,경기도 광명시 철망산로 87 ,37.4703,126.8774,0.6,0.0,,
70461,세이브존노원점,강북팀,유통점,영업,2008-03-18,90.0,85.0,5.0,297.0,81.0,서울 노원구 한글비석로 57 (하계동) 세이브존노원점 B1층,37.6366,127.0689,6.1,0.0,,
71691,세이브존상동점,북인천팀,유통행사,영업,2020-07-04,25.0,25.0,0.0,0.0,21.0,경기도 부천시 길주로 105 (상동) ,37.5064,126.7541,0.0,0.0,,
71715,세이브존성남점,강동팀,유통점,영업,2021-06-16,119.52,116.0,3.52,394.0,112.0,"경기 성남시 수정구 산성대로 337 (신흥동, 세이브존) ",37.4439,127.1535,2.5,0.5,,
71251,세이브존울산점,울산팀,유통행사,영업,2023-04-29,30.0,30.0,0.0,0.0,26.0,울산광역시 남구 번영로250번길 9 (삼산동) 1377-8,35.5481,129.3246,0.0,0.0,,
71210,세이브존전주점,전북팀,유통행사,영업,2023-03-11,50.0,45.0,5.0,0.0,41.0,전라북도 전주시 완산구 팔달로 262-6(서노송동) 627-1,35.8256,127.1447,0.0,0.0,,
70957,세이브존해운대점,동부산팀,유통행사,영업,2023-03-31,35.0,35.0,0.0,0.0,31.0,부산광역시 해운대구 구남로29번길 21(중동) 1380-14,35.1624,129.1612,0.0,0.0,,
71645,세이브존화정점,일산팀,유통점,영업,2019-05-12,230.0,214.0,16.0,844.0,208.0,경기도 고양시 덕양구 화정로 52 (화정동) ,37.6344,126.8314,5.5,0.1,,
11044,세종나성점,충북팀,직영점,영업,2023-02-18,574.0,508.0,66.0,4202.33,500.0,세종특별자치시 나성로 96(나성동) ,36.4879,127.261,12.4,1.3,15157892.857142856,303.0
11137,세종반곡점,충북팀,직영점,영업,2024-10-16,281.0,225.0,56.0,1990.8,219.0,"세종특별자치시 시청대로 547 (반곡동, 수루배마을9단지) ",36.4988,127.3177,6.3,0.5,6926267.857142857,139.0
10952,세종법원로점,충북팀,직영점,영업,2021-02-04,234.0,219.0,15.0,1574.0,213.0,세종특별자치시 소담로 70 (소담동) ,36.4852,127.3041,6.9,0.5,7733964.285714285,155.0
10872,세종본점,충북팀,직영점,영업,2019-03-23,550.0,504.0,46.0,4207.6,482.0,세종특별자치시 세종로 1215 (고운동) ,36.5111,127.241,19.6,1.6,23377892.85714286,468.0
10783,세종시청점,충북팀,직영점,영업,2018-04-01,316.0,300.0,16.0,1909.1,292.0,세종특별자치시 대평로 71 (대평동) ,36.4733,127.2772,8.1,0.7,9551482.142857144,191.0
10814,세종첫마을점,충북팀,직영점,영업,2018-06-24,291.0,269.0,22.0,1806.0,263.0,세종특별자치시 한누리대로 296 (나성동) ,36.4907,127.2569,9.8,0.8,12408607.142857144,248.0
10827,소사역점,북인천팀,직영점,영업,2018-08-25,160.0,138.0,22.0,511.4,132.0,경기도 부천시 소사로 272 (소사본동) ,37.4827,126.7951,6.9,0.5,8485392.857142856,170.0
10987,속초미시령점,강릉속초팀,직영점,영업,2021-11-27,176.0,151.0,25.0,518.52,145.0,강원도 속초시 미시령로 3269(교동) ,38.2046,128.565,5.0,0.3,6954928.571428572,139.0
10817,속초본점,강릉속초팀,직영점,영업,2018-06-30,821.0,754.0,67.0,2894.0,718.0,강원도 속초시 동해대로 4038 (조양동) ,38.1901,128.5932,26.9,1.5,32583303.57142857,652.0
10082,송내역점,북인천팀,직영점,영업,2007-05-24,105.0,102.0,3.0,759.0,98.0,경기도 부천시 송내대로 43 (송내동) ,37.4877,126.7528,10.2,0.5,12971803.57142857,259.0
10672,송도트리플스트리트점,남인천팀,직영점,영업,2017-06-30,520.0,484.0,36.0,4633.0,476.0,인천광역시 연수구 송도과학로16번길 33-4(송도동) D동 지하1층,37.3787,126.6628,18.8,1.7,24411625.0,488.0
10465,송추계곡입구점,강북팀,직영점,영업,2012-11-18,161.0,161.0,0.0,766.4,150.0,경기도 양주시 장흥면 가마골로 4 ,37.7192,126.9752,6.0,0.0,5603303.571428572,112.0
11049,송탄본점,평택팀,직영점,영업,2023-03-24,315.0,279.0,36.0,995.92,257.0,경기 평택시 경기대로 1636 ,37.0904,127.0634,12.5,1.1,15044125.0,301.0
10887,송파구청점,강남팀,직영점,영업,2019-06-21,350.0,320.0,30.0,1785.37,312.0,서울특별시 송파구 오금로 87 (방이동) ,37.5146,127.1074,16.0,1.0,21822232.14285714,436.0
10673,송파파크하비오점,강남팀,직영점,영업,2017-03-25,335.0,325.0,10.0,2440.0,303.0,"서울특별시 송파구 송파대로 111 (문정동, 파크하비오) 205동",37.4797,127.125,9.8,0.8,12941875.0,259.0
10731,수원고색점,수원팀,직영점,영업,2018-01-07,336.0,316.0,20.0,1188.0,287.0,경기도 수원시 권선구 매송고색로 642 (고색동) ,37.2489,126.9751,11.2,0.8,14224821.42857143,284.0
10995,수원구운점,수원팀,직영점,영업,2022-03-25,279.0,261.0,18.0,936.0,241.0,경기도 수원시 권선구 수인로 313(구운동) ,37.2842,126.9686,5.9,0.5,7265107.142857143,145.0
10611,수원남문점,수원팀,직영점,영업,2016-11-05,728.0,698.0,30.0,3390.0,662.0,경기도 수원시 팔달구 팔달문로 8 (영동) ,37.2774,127.0182,16.8,2.4,23049089.285714287,461.0
11234,수원당수동점,수원팀,직영점,영업,2026-03-06,265.05,242.09,22.96,0.0,236.09,경기 수원시 권선구 당수로130번길 13 ,37.2868,126.9442,5.2,0.5,4859964.285714285,97.0
10340,수원망포점,수원팀,직영점,영업,2011-07-10,100.0,100.0,0.0,325.5,91.0,경기도 수원시 영통구 영통로 118 (망포동) ,37.2384,127.0571,5.0,0.3,4595732.142857143,92.0
11076,수원매교역점,수원팀,직영점,영업,2023-10-27,301.0,272.0,29.0,1300.9,264.0,경기도 수원시 팔달구 정조로 651 (매교동) ,37.2667,127.0157,6.9,0.5,8613535.714285715,172.0
10216,수원역점,수원팀,직영점,영업,2010-01-12,130.0,123.0,7.0,578.0,112.0,경기도 수원시 팔달구 덕영대로 909 (매산로1가) ,37.2677,127.0007,9.8,0.8,12158250.0,243.0
10540,수원영통점,수원팀,직영점,영업,2014-04-30,103.0,95.0,8.0,594.0,93.0,경기도 수원시 영통구 봉영로 1590 (영통동) ,37.2528,127.0734,5.5,0.5,6189553.571428572,124.0
10753,수원인계본점,수원팀,직영점,영업,2018-05-30,430.0,380.0,50.0,2610.0,358.0,경기도 수원시 팔달구 권광로 202 (인계동) ,37.2654,127.0337,18.9,1.1,23288678.57142857,466.0
10613,수원정자점,수원팀,직영점,영업,2016-05-27,300.0,280.0,20.0,939.0,269.0,경기도 수원시 장안구 대평로 80 (정자동) ,37.2956,126.9936,9.2,0.5,10536375.0,211.0
10601,수원터미널점,수원팀,직영점,영업,2016-07-30,375.0,360.0,15.0,1501.0,340.0,경기도 수원시 권선구 경수대로 291 (세류동) ,37.253,127.0198,13.2,0.8,16224482.142857144,324.0
10419,수원호매실점,수원팀,직영점,영업,2012-06-29,140.0,135.0,5.0,836.0,126.0,경기도 수원시 권선구 금곡로 100 (금곡동) ,37.2739,126.9413,6.8,0.4,7103375.0,142.0
10681,수원화서점,수원팀,직영점,영업,2017-09-02,267.0,243.0,24.0,1864.0,223.0,경기도 수원시 팔달구 수성로 102 (화서동) ,37.2841,126.9847,8.2,0.5,9975910.714285716,200.0
10973,수유본점,강북팀,직영점,영업,2021-06-30,285.0,218.0,67.0,1015.4,212.0,서울특별시 강북구 도봉로 342 (번동) ,37.638,127.0261,17.9,1.1,22588607.14285714,452.0
11175,수유시장2호점,강북팀,직영점,영업,2025-05-23,828.54,710.47,118.07,2738.99,695.47,서울특별시 강북구 도봉로67길 18 (수유동) ,37.6307,127.0227,11.1,0.0,13758625.0,275.0
10099,수유시장점,강북팀,직영점,영업,2007-09-23,106.3,100.0,6.3,368.0,96.0,서울특별시 강북구 도봉로 260 (미아동) ,37.6317,127.0244,7.9,0.5,5581750.0,112.0
11010,수정구청점,강동팀,직영점,영업,2022-05-05,97.0,90.0,7.0,1549.6,86.0,경기도 성남시 수정구 수정로 267(신흥동) ,37.4489,127.1453,4.1,0.1,4280714.285714285,86.0
10558,수지2호점,용인팀,직영점,영업,2014-12-17,150.0,140.0,10.0,773.0,124.0,경기도 용인시 수지구 문정로 32 (풍덕천동) ,37.3235,127.0955,9.9,0.8,12206875.0,244.0
11120,순천서면점,전남팀,직영점,영업,2024-06-05,238.75,170.0,68.75,791.64,157.0,전라남도 순천시 서면 삼산로 291 ,34.9877,127.5045,6.9,0.5,7365321.428571428,147.0
10967,순천왕지점,전남팀,직영점,영업,2021-05-13,276.0,250.0,26.0,829.13,244.0,전라남도 순천시 백강로 367 (조례동) ,34.9663,127.5209,11.6,0.5,13028678.57142857,261.0
10628,순천중앙시장점,전남팀,직영점,영업,2016-07-07,220.0,187.0,33.0,700.0,169.0,전라남도 순천시 중앙시장길 7 (남내동) ,34.9536,127.4845,7.2,0.4,7160553.571428572,143.0
10853,순천풍덕점,전남팀,직영점,영업,2018-11-29,362.0,342.0,20.0,1211.26,327.0,전라남도 순천시 팔마로 197-6 (덕암동) ,34.9418,127.5088,13.0,1.1,14675535.714285716,294.0
11224,스타시티건대점,구리팀,직영점,영업,2026-02-27,393.86,340.68,53.18,0.0,332.68,서울특별시 광진구 능동로 92 (자양동) B2층,37.539,127.0714,13.9,0.8,16236142.857142856,325.0
10705,스타필드고양점,일산팀,직영점,영업,2017-08-16,580.0,524.6,55.4,1951.0,516.6,경기도 고양시 덕양구 고양대로 1955 (동산동) ,37.647,126.8948,23.1,1.8,34616339.28571428,692.0
11200,스타필드마켓경산점,대구팀,직영점,영업,2025-10-24,530.3,444.0,86.3,0.0,436.0,경상북도 경산시 옥산로 227 (중산동) ,35.8349,128.7201,12.2,0.8,14512000.0,290.0
11188,스타필드마켓동탄점,수원팀,직영점,영업,2025-07-31,414.0,370.0,44.0,1348.73,362.0,경기도 화성시 동탄중앙로 376 (석우동) ,37.2141,127.0796,8.9,0.8,9316730.76923077,186.0
11183,스타필드마켓일산점,일산팀,직영점,영업,2025-06-26,507.0,476.0,31.0,1677.35,468.0,경기도 고양시 일산서구 킨텍스로 171 (대화동) ,37.6616,126.7441,10.2,1.2,12624192.307692308,252.0
11128,스타필드마켓죽전점,용인팀,직영점,영업,2024-08-29,467.0,416.0,51.0,1545.19,408.0,경기도 용인시 수지구 포은대로 552 (죽전동) ,37.3253,127.11,14.9,0.8,17149115.384615384,343.0
10959,스타필드부천점,북인천팀,직영점,영업,2021-04-17,97.0,83.0,14.0,291.86,79.0,경기도 부천시 옥길로 1 (옥길동) ,37.4615,126.8139,6.6,0.5,6271696.428571428,125.0
11088,스타필드수원점,수원팀,직영점,영업,2024-01-24,422.0,362.0,60.0,1395.41,354.0,경기 수원시 장안구 수성로 175 ,37.2874,126.9916,19.6,1.1,26229678.57142857,525.0
10944,스타필드안성점,평택팀,직영점,영업,2020-10-05,448.0,411.0,37.0,1480.0,403.0,경기도 안성시 공도읍 서동대로 3930-39 스타필드안성점,36.9946,127.1472,19.7,1.7,20170910.714285713,403.0
10985,스타필드위례점,강동팀,직영점,영업,2021-11-26,670.0,593.0,77.0,2214.9,585.0,경기도 하남시 위례대로 200(학암동) ,37.4801,127.1484,19.9,2.9,23092142.85714286,462.0
11045,스타필드하남점,강동팀,직영점,영업,2023-04-01,688.0,634.0,54.0,2528.89,594.0,경기도 하남시 미사대로 750(신장동) ,37.5454,127.2239,22.6,2.9,27102785.714285713,542.0
10692,시흥능곡점,안산팀,직영점,영업,2017-08-13,460.0,445.0,15.0,2877.0,416.0,경기도 시흥시 승지로60번길 23 (능곡동) ,37.3682,126.8124,16.6,1.1,15086517.857142856,302.0
10372,시흥대야점,안산팀,직영점,영업,2011-12-08,136.0,133.0,3.0,682.0,122.0,경기도 시흥시 은행로 164 (대야동) ,37.4457,126.7991,6.9,0.5,6740857.142857143,135.0
10583,시흥사거리점,관악팀,직영점,영업,2015-08-26,170.0,160.0,10.0,746.0,149.0,서울특별시 금천구 시흥대로 230 (시흥동) ,37.4544,126.9012,15.4,1.3,17745178.57142857,355.0
11171,시흥신천2호점,안산팀,직영점,영업,2025-03-22,281.0,257.0,24.0,955.18,244.0,경기도 시흥시 복지로 11 (신천동) ,37.4409,126.7873,10.4,0.6,12062196.42857143,241.0
10231,시흥신천점,안산팀,직영점,영업,2010-03-30,129.0,125.0,4.0,446.0,107.0,경기도 시흥시 수인로 3370 (신천동) ,37.441,126.7846,8.0,1.3,7279125.0,146.0
10482,시흥월곶점,안산팀,직영점,영업,2013-02-08,140.0,133.0,7.0,439.0,122.0,경기도 시흥시 월곶중앙로 57 (월곶동) ,37.3884,126.7389,5.9,0.5,5884875.0,118.0
11064,시흥은계점,안산팀,직영점,영업,2023-07-28,391.0,312.0,79.0,1408.62,290.0,경기도 시흥시 은계중앙로 15 (은행동) ,37.4317,126.8007,12.9,1.1,13734089.285714284,275.0
11072,시흥장현지구점,안산팀,직영점,영업,2023-09-22,250.6,215.0,35.6,828.47,202.0,경기도 시흥시 장현능곡로 1 (장곡동) ,37.373,126.791,5.5,0.5,7012928.571428572,140.0
10925,시흥정왕2호점,안산팀,직영점,영업,2020-02-21,261.0,237.0,24.0,1376.85,224.0,경기도 시흥시 중심상가로 146 (정왕동) ,37.3467,126.7321,9.5,0.4,10438482.142857144,209.0
10691,시흥정왕본점,안산팀,직영점,영업,2017-10-20,300.0,287.0,13.0,689.0,258.0,경기도 시흥시 옥구상가1길 15 (정왕동) ,37.3537,126.7222,12.6,0.8,11818785.714285716,236.0
10930,시흥정왕역점,안산팀,직영점,영업,2020-04-24,310.0,265.0,45.0,997.0,236.0,경기도 시흥시 역전로290번길 12 (정왕동) ,37.3526,126.741,11.5,0.5,13654678.57142857,273.0
10364,신곡시장점,신촌팀,직영점,영업,2011-10-22,160.0,153.0,7.0,532.0,140.0,서울특별시 양천구 신월로 160 (신월동) ,37.5176,126.8416,9.7,0.6,10745107.142857144,215.0
11220,신길점,신촌팀,직영점,영업,2025-12-25,225.0,184.0,41.0,0.0,178.0,서울특별시 영등포구 가마산로 476 (신길동) ,37.5056,126.909,7.7,0.0,8766428.57142857,175.0
11055,신대방점,관악팀,직영점,영업,2023-05-27,338.0,302.0,36.0,1116.06,287.0,서울특별시 동작구 여의대방로 122 (신대방동) ,37.4978,126.9204,10.8,0.8,12701410.714285716,254.0
11080,신도림점,관악팀,직영점,영업,2023-11-16,154.0,127.0,27.0,644.46,121.0,서울특별시 구로구 새말로 110 (구로동) ,37.5063,126.8921,11.7,0.6,12660678.57142857,253.0
10569,신림3호점,관악팀,직영점,영업,2015-05-17,230.0,210.0,20.0,1367.0,199.0,"서울특별시 관악구 신림로 318 (신림동, 청암두산위브센티움) ",37.4826,126.9303,16.5,1.5,20944482.14285714,419.0
10104,신림역1호점,관악팀,직영점,영업,2007-11-14,42.9,39.9,3.0,165.0,35.9,서울특별시 관악구 신림로 354 (신림동) ,37.486,126.9299,6.9,0.5,6763732.142857143,135.0
